[
  {
    "title": "47th Annual Latin American Film Series (3/31-4/04)",
    "description": "The Center for Latin American and Caribbean Studies, in partnership with UWM Union Student Involvement and Union Cinema, presents: 47th Annual Latin American Film Series March 31-April 4, 2026 UW-Milwaukee…",
    "location": "UWM Union Cinema, 2200 E. Kenwood Blvd., Milwaukee, WI, 53211, United States",
    "organizer": "Letters & Science",
    "date": "3/31/2026",
    "lat": 43.0750919,
    "lng": -87.8805723
  },
  {
    "title": "The 47th Annual Latin American Film Series",
    "description": "Special Event // March 31st – April 4th UWM’s Latin American Film Series returns this April for its 47th year, showcasing recent feature-length films from across Latin America and the…",
    "location": "UWM Student Union (UN), 2200 East Kenwood Blvd., Milwaukee, WI, 53211, United States",
    "organizer": "Student Affairs",
    "date": "3/31/2026",
    "lat": 43.0751922,
    "lng": -87.8813912
  },
  {
    "title": "Java and Job Talk: Wisconsin Department of Transportation",
    "description": "Stop by to grab a free cup of java/tea and network with industry representatives in a casual setting.  This is a great way to learn about opportunities and talk shop…",
    "location": "Kulwicki Garage, 3200 N Cramer St, Milwaukee, WI, 53211",
    "organizer": "Center for Student Experience & Talent",
    "date": "3/31/2026",
    "lat": 43.0756827,
    "lng": -87.8864139
  },
  {
    "title": "Ask a Nurse",
    "description": "Stop by the new Ask a Nurse table to speak with a nurse from the Student Health and Wellness Center. Ask a medical question, learn about SHAW services, sign up for the Patient Portal, and so much more.",
    "location": "Sandburg Residence Halls (SAN), 3400 North Maryland Ave,, Milwaukee, WI, 53212, United States",
    "organizer": "Student Affairs",
    "date": "3/31/2026",
    "lat": 43.0791781,
    "lng": -87.88182760000001
  },
  {
    "title": "Early Voting- MKE Residents",
    "description": "Early voting will take place March 24-28, 2026, 10am-5pm; March 29, 2026, 10am-2pm; and March 30- April 4, 2026, 10am-5pm in Zelazo Center for Milwaukee residents only. For more information…",
    "location": "Zelazo Center for the Performing Arts (ZEL), 2419 East Kenwood Blvd, Milwaukee, WI, 53211, United States",
    "organizer": "Student Affairs",
    "date": "3/31/2026",
    "lat": 43.0742889,
    "lng": -87.8797889
  },
  {
    "title": "Let's Talk",
    "description": "Whether it’s stress, sadness, relationship problems, academic concerns, or coping with the impact of world events, sharing your concerns with another person can make a positive difference. “Let’s Talk” is…",
    "location": "First-Generation+ Resource Center (EG39), 2200 East Kenwood Blvd, Milwaukee, WI, 53211, United States",
    "organizer": "Student Affairs",
    "date": "3/31/2026",
    "lat": 43.0751922,
    "lng": -87.8813912
  },
  {
    "title": "Club Soda",
    "description": "Club Soda (formerly known as ‘Sober Socials’) is a weekly get-together with students who choose not to use for whatever reason. It is a great place to meet like-minded people…",
    "location": "UWM Student Union (UN), 2200 East Kenwood Blvd., Milwaukee, WI, 53211, United States",
    "organizer": "Student Affairs",
    "date": "3/31/2026",
    "lat": 43.0751922,
    "lng": -87.8813912
  },
  {
    "title": "Conflict Transformation workshop: Preparing for Conflict (in person)",
    "description": "Conflict Transformation workshops provide space for UWM employees to explore ways you experience and respond to conflict. Participants gain greater awareness of varied conflict styles and learn strategies to address…",
    "location": "Engelmann Hall, B73",
    "organizer": "Division of Community Empowerment and Institutional Inclusivity",
    "date": "3/31/2026",
    "lat": 43.0772905,
    "lng": -87.88415979999999
  },
  {
    "title": "Milwaukee Athletics Baseball vs UIC",
    "description": "Milwaukee Athletics Baseball vs UIC Streaming Audio: http://mkepanthers.com/showcase?Live=138 Tickets: https://am.ticketmaster.com/uwm/buy/Baseball?utm_source=ig&utm_medium=social&utm_content=link_in_bio&fbclid=PAZXh0bgNhZW0CMTEAc3J0YwZhcHBfaWQMMjU2MjgxMDQwNTU4AAGnDWkYqtaGgGRy6Lw_HGjYmlsul1vXgn-PhtTMIPgyaq0c2d7H2nklBMaFZwQ_aem_DspH1UH5D4lZROGv9AFcPQ",
    "location": "Franklin, Wis., Franklin Field",
    "organizer": "Panther Athletics",
    "date": "3/31/2026",
    "lat": 42.9176698,
    "lng": -88.0155147
  },
  {
    "title": "W.O.M.A.N.",
    "description": "Searching for a weekly safe place for women or anyone affected misogyny?  Come to W.O.M.A.N where you can learn how to empower and to feel empowered with fellow allies.  Women Overcoming Misogyny And Noise…",
    "location": "UWM Student Union (UN), 2200 East Kenwood Blvd., Milwaukee, WI, 53211, United States",
    "organizer": "Student Affairs",
    "date": "3/31/2026",
    "lat": 43.0751922,
    "lng": -87.8813912
  },
  {
    "title": "Latin American Film Series: The First Women",
    "description": "A documentary following the lives of Brazilian soccer players who were discovered young and asked to love a sport that did not love them back. Free and open to the…",
    "location": "UWM Student Union, 2200 East Kenwood Blvd, Milwaukee, WI, 53212, United States",
    "organizer": "UWM Campus Events Calendar",
    "date": "3/31/2026",
    "lat": 43.0751922,
    "lng": -87.8813912
  },
  {
    "title": "The First Women (As Primeiras)",
    "description": "Director: Adriana Yañez 2024 Brazil | 78 minutes When women’s football is outlawed in Brazil in 1941, the game is forced into the shadows until its re-legalization in 1979. This documentary follows the first players…",
    "location": "UWM Student Union (UN), 2200 East Kenwood Blvd., Milwaukee, WI, 53211, United States",
    "organizer": "Student Affairs",
    "date": "3/31/2026",
    "lat": 43.0751922,
    "lng": -87.8813912
  },
  {
    "title": "Hope & Healing Drive",
    "description": "The UWM Police Department and the UWM Student Health and Wellness Center invite you to join us in supporting Aurora Healing Centers with monetary and in-kind donations. To donate: Priority…",
    "location": "UWM Police Department, 3351 N Downer Ave, Milwaukee, WI, 53211, United States",
    "organizer": "UWM Campus Events Calendar",
    "date": "4/1/2026",
    "lat": 43.0786594,
    "lng": -87.8797378
  },
  {
    "title": "Art & Design First Year Experience Exhibition",
    "description": "Date & TimeApril 1–April 10, 2026Reception & 3D Studio Fashion Show: Friday, April 3 | 5 p.m.–7 p.m.Gallery Hours: Mon, Tue, Wed, Fri (12–5 p.m.), Thur (12–7 p.m.) LocationUWM Union…",
    "location": "UWM Union Art Gallery, 2200 E. Kenwood Blvd., Milwaukee, WI, 53211",
    "organizer": "Peck School of the Arts",
    "date": "4/1/2026",
    "lat": 43.0751758,
    "lng": -87.8815483
  },
  {
    "title": "Active Teaching Lab - Reading and AI Literacy",
    "description": "Connecting Critical Reading and AI Literacy Shevaun Watson and Cassandra Phillips Generative AI is transforming college students’ literacy development, and understanding these challenges is important at this critical juncture. This…",
    "location": "WI",
    "organizer": "Center for Excellence in Teaching & Learning",
    "date": "4/1/2026",
    "lat": 43.7844397,
    "lng": -88.7878678
  },
  {
    "title": "Hula & Polynesian Culture Workshop Series",
    "description": "Hula & Polynesian Culture Workshop Series Join the Electa Quinney Institute for American Indian Education for a weekly cultural immersion experience led by Artist-In-Residence Malia Chow from Nā Hale Studios…",
    "location": "Merrill Hall 142, 2512 E. Kenwood, Milwaukee, Wiscosin, 53211",
    "organizer": "Electa Quinney Institute",
    "date": "4/1/2026",
    "lat": 43.07469529999999,
    "lng": -87.8788631
  },
  {
    "title": "Early Voting- MKE Residents",
    "description": "Early voting will take place March 24-28, 2026, 10am-5pm; March 29, 2026, 10am-2pm; and March 30- April 4, 2026, 10am-5pm in Zelazo Center for Milwaukee residents only. For more information…",
    "location": "Zelazo Center for the Performing Arts (ZEL), 2419 East Kenwood Blvd, Milwaukee, WI, 53211, United States",
    "organizer": "Student Affairs",
    "date": "4/1/2026",
    "lat": 43.0742889,
    "lng": -87.8797889
  },
  {
    "title": "Connecting Cultures: Asian American Pacific Islander Heritage",
    "description": "11-2pm | Union Concourse  Join us for music, delicious food, and an exciting cultural exploration that highlights Asian American Pacific Islander heritage!  Sponsored by the Sociocultural Programming & Southeast Asian…",
    "location": "UWM Student Union (UN), 2200 East Kenwood Blvd., Milwaukee, WI, 53211, United States",
    "organizer": "Student Affairs",
    "date": "4/1/2026",
    "lat": 43.0751922,
    "lng": -87.8813912
  },
  {
    "title": "Wednesday Well-Being: Spring 2026",
    "description": "Join us every Wednesday in the NWQD 3rd-floor student lounge for rotating activities everyone can enjoy.Whether you are coming to see an advisor, looking for ways to de-stress, or make…",
    "location": "NWQD 3rd Floor, 2025 E Newport Ave, Milwaukee, WI, 53211, United States",
    "organizer": "School of Information Studies",
    "date": "4/1/2026",
    "lat": 43.078332,
    "lng": -87.88436279999999
  },
  {
    "title": "Pop in with City Year",
    "description": "Pop in for casual event to connect with City Year and learn about their typical opportunities. Come for free soda and popcorn, stay for the potential opportunity! Learn more!",
    "location": "Lubar Career Center, 3202 N Maryland Ave, Milwaukee, WI, 53211, United States",
    "organizer": "Center for Student Experience & Talent",
    "date": "4/1/2026",
    "lat": 43.07571919999999,
    "lng": -87.8824594
  },
  {
    "title": "Explore Milwaukee Bike Ride",
    "description": "We’ll kick off this trip by learning the rules of the road and how to bike safely on Milwaukee city streets. Then, put your skills to the test with a…",
    "location": "Klotsche Center (KC), 3409 North Downer Ave., Milwaukee, WI, 53211, United States",
    "organizer": "Student Affairs",
    "date": "4/1/2026",
    "lat": 43.0795057,
    "lng": -87.8796776
  },
  {
    "title": "Cactus Book Club with C21: Attensity!",
    "description": "Wednesday, April 1, 5:30-7:30 PM Cactus Club, 2496 S. Wentworth Ave., Milwaukee, WI 53207 Free & open to the public; no registration required C21’s Story Cart program invites you to…",
    "location": "Cactus Club, 2496 S Wentworth Ave, Milwaukee, Wisconsin, 53207, United States",
    "organizer": "Center for 21st Century Studies",
    "date": "4/1/2026",
    "lat": 42.9990394,
    "lng": -87.8901712
  },
  {
    "title": "Photo Social Night",
    "description": "Interested in photography and our darkroom space? Meet up with other patrons each month to work on photo-related projects. Each session will have a follow-along photo activity available, but personal…",
    "location": "UWM Student Union (UN), 2200 East Kenwood Blvd., Milwaukee, WI, 53211, United States",
    "organizer": "Student Affairs",
    "date": "4/1/2026",
    "lat": 43.0751922,
    "lng": -87.8813912
  },
  {
    "title": "Latin American Film Series: The Dog Who Wouldn't Be Quiet",
    "description": "In a story both tender and absurd, Sebastián drifts through a life shaped by work, chance and quiet companionship. Free and open to the public at the UWM Union Cinema,…",
    "location": "UWM Student Union, 2200 East Kenwood Blvd, Milwaukee, WI, 53212, United States",
    "organizer": "UWM Campus Events Calendar",
    "date": "4/1/2026",
    "lat": 43.0751922,
    "lng": -87.8813912
  },
  {
    "title": "The Dog Who Wouldn’t Be Quiet (El perro que no calla)",
    "description": "Director: Ana Katz 2020 Argentina | 73 minutes *Join us after the film for a short discussion with UWM film studies professor Tami Williams! In a story both tender and…",
    "location": "UWM Student Union (UN), 2200 East Kenwood Blvd., Milwaukee, WI, 53211, United States",
    "organizer": "Student Affairs",
    "date": "4/1/2026",
    "lat": 43.0751922,
    "lng": -87.8813912
  },
  {
    "title": "Artists Now! Guest Lecture Series: Steve Teeple",
    "description": "Date & TimeWednesday, April 1, 2026 (7:30–9 p.m.) LocationVirtual Steve Teeple (aka Teeps) is a Los Angeles-based digital artist known for his supernatural and mythic-inspired creations where he specializes in…",
    "location": "https://uwm.edu/arts/event/artists-now-guest-lecture-series-steve-teeple/",
    "organizer": "Peck School of the Arts",
    "date": "4/1/2026",
    "lat": 43.0751758,
    "lng": -87.8815483
  },
  {
    "title": "Canceled: An Evening of Original Songs by Lauren Spavelko Featuring soprano Dr. Jessica Spafford",
    "description": "Sorry! This event has been canceled. Please contact the Box Office with any questions. Join us for a concert-style presentation of original works by composer Lauren E. Spavelko performed by soprano Dr. Jessica…",
    "location": "Music Building, Recital Hall, 2400 E. Kenwood Blvd., Milwaukee, WI, 53211",
    "organizer": "Peck School of the Arts",
    "date": "4/1/2026",
    "lat": 43.0762821,
    "lng": -87.8798006
  },
  {
    "title": "Java and Job Talk: Uline",
    "description": "Stop by to grab a free cup of java/tea and network with industry representatives in a casual setting.  This is a great way to learn about opportunities and talk shop…",
    "location": "Kulwicki Garage, 3200 N Cramer St, Milwaukee, WI, 53211",
    "organizer": "Center for Student Experience & Talent",
    "date": "4/2/2026",
    "lat": 43.0756827,
    "lng": -87.8864139
  },
  {
    "title": "Zilber College of Public Health Seminar - Everyone Deserves a Healthy Smile: Improving Oral Health Access in Wisconsin",
    "description": "Presented by Dr. Sidney M. Ebert, DDS Director of Dental Services Community Smiles Dr. Sidney Ebert is the Director of Dental Services at Community Smiles Dental, a non-profit organization that…",
    "location": "KIRC Room 1150, 3135 N. Maryland Ave., Milwaukee, WI, 53211, United States",
    "organizer": "Zilber College of Public Health",
    "date": "4/2/2026",
    "lat": 43.0754876,
    "lng": -87.8839258
  },
  {
    "title": "Early Voting- MKE Residents",
    "description": "Early voting will take place March 24-28, 2026, 10am-5pm; March 29, 2026, 10am-2pm; and March 30- April 4, 2026, 10am-5pm in Zelazo Center for Milwaukee residents only. For more information…",
    "location": "Zelazo Center for the Performing Arts (ZEL), 2419 East Kenwood Blvd, Milwaukee, WI, 53211, United States",
    "organizer": "Student Affairs",
    "date": "4/2/2026",
    "lat": 43.0742889,
    "lng": -87.8797889
  },
  {
    "title": "Radicalize, Reclaim and Recycle; Junk journaling, clothing vendors and mending, conversations",
    "description": "This Earth Day, join the Women’s Resource Center for Radicalize, Reclaim, and Recycle, an afternoon where activism meets sustainability through creative expression and community connection. Together, we’ll explore how feminism,…",
    "location": "UWM Student Union (UN), 2200 East Kenwood Blvd., Milwaukee, WI, 53211, United States",
    "organizer": "Student Affairs",
    "date": "4/2/2026",
    "lat": 43.0751922,
    "lng": -87.8813912
  },
  {
    "title": "A Toast to the Senior Class",
    "description": "We know you have worked hard to graduate, which is why we’re taking time to toast your efforts. The UWM Future Alumni Network and UWM Student Government are teaming up…",
    "location": "UWM Zelazo Center for the Performing Arts, 2419 E. Kenwood Blvd., Milwaukee, WI",
    "organizer": "University Advancement",
    "date": "4/2/2026",
    "lat": 43.0742889,
    "lng": -87.8797889
  },
  {
    "title": "Financial Aid Help Session",
    "description": "Got financial aid questions? FAFSA got you in a twist? Trouble breaking down your tuition? Drop into the FG+RC to meet with a financial aid expert every other Thursday. No…",
    "location": "First-Generation+ Resource Center (EG39), 2200 East Kenwood Blvd, Milwaukee, WI, 53211, United States",
    "organizer": "Student Affairs",
    "date": "4/2/2026",
    "lat": 43.0751922,
    "lng": -87.8813912
  },
  {
    "title": "Webinar on Using AI for Research",
    "description": "Scott Genung, associate vice chancellor for IT and CIO, and Purush Papatla, NMDSI marketing professor and co-director, NMDSI, are hosting a webinar on “Using AI for Research” from 2:30-4 p.m.…",
    "location": "Virtual, Milwaukee, WI, United States",
    "organizer": "UWM Campus Events Calendar",
    "date": "4/2/2026",
    "lat": 43.0410344,
    "lng": -87.9096783
  },
  {
    "title": "On-campus Employment Resume and Application Workshop",
    "description": "For students who have applied to on-campus employment several times and want to learn how to improve their application documents. Learn what on-campus employers look for in a resume Learn…",
    "location": "Student Union E153, 2200 E Kenwood Blvd., Milwaukee, WI, 53211",
    "organizer": "Center for Student Experience & Talent",
    "date": "4/2/2026",
    "lat": 43.0751922,
    "lng": -87.8813912
  },
  {
    "title": "Milwaukee Athletics Baseball vs Youngstown State",
    "description": "Milwaukee Athletics Baseball vs Youngstown State TV: ESPN+ Streaming Video: https://www.espn.com/watch/player/_/id/3e5eea11-bcfb-4bfc-9bfd-4039ec4ca038 Streaming Audio: http://mkepanthers.com/showcase?Live=139 Tickets: https://am.ticketmaster.com/uwm/buy/Baseball?utm_source=ig&utm_medium=social&utm_content=link_in_bio&fbclid=PAZXh0bgNhZW0CMTEAc3J0YwZhcHBfaWQMMjU2MjgxMDQwNTU4AAGnDWkYqtaGgGRy6Lw_HGjYmlsul1vXgn-PhtTMIPgyaq0c2d7H2nklBMaFZwQ_aem_DspH1UH5D4lZROGv9AFcPQ",
    "location": "Franklin, Wis., Franklin Field",
    "organizer": "Panther Athletics",
    "date": "4/2/2026",
    "lat": 42.9176698,
    "lng": -88.0155147
  },
  {
    "title": "Zilber College MPH Information Event (In-person)",
    "description": "You are invited to join the Joseph J. Zilber College of Public Health Information Event! This night will feature faculty, staff, and students from our school. You can hear from current…",
    "location": "Zilber College of Public Health, 1240 N 10th Street, Milwaukee, WI, 53205, United States",
    "organizer": "Zilber College of Public Health",
    "date": "4/2/2026",
    "lat": 43.0467346,
    "lng": -87.9242198
  },
  {
    "title": "Knitting and Crochet Help Desk",
    "description": "Are you stuck in the middle of a knitting or crochet project and need some help with stitches or pattern reading? SACC is giving you the opportunity to consult our…",
    "location": "UWM Student Union (UN), 2200 East Kenwood Blvd., Milwaukee, WI, 53211, United States",
    "organizer": "Student Affairs",
    "date": "4/2/2026",
    "lat": 43.0751922,
    "lng": -87.8813912
  },
  {
    "title": "Latin American Film Series: We Shall Not Be Moved",
    "description": "Socorro is a retired lawyer consumed by her obsession to find the soldier who killed her brother nearly 60 years earlier, during the 1968 student protests in Mexico City’s Tlatelolco…",
    "location": "UWM Student Union, 2200 East Kenwood Blvd, Milwaukee, WI, 53212, United States",
    "organizer": "UWM Campus Events Calendar",
    "date": "4/2/2026",
    "lat": 43.0751922,
    "lng": -87.8813912
  },
  {
    "title": "We Shall Not Be Moved (No nos moverán)",
    "description": "Director: Pierre Saint-Martin Castellanos 2024 Mexico | 94 minutes Socorro is a retired lawyer consumed by her obsession to find the soldier who killed her brother nearly 60 years ago,…",
    "location": "UWM Student Union (UN), 2200 East Kenwood Blvd., Milwaukee, WI, 53211, United States",
    "organizer": "Student Affairs",
    "date": "4/2/2026",
    "lat": 43.0751922,
    "lng": -87.8813912
  },
  {
    "title": "Setting Sexpectations",
    "description": "haCome get answers to the questions you’ve always had, shame and embarassment free! Learn, laugh, and leave feeling more informed and confident. Join us for a fun evening of trivia,…",
    "location": "UWM Student Union (UN), 2200 East Kenwood Blvd., Milwaukee, WI, 53211, United States",
    "organizer": "Student Affairs",
    "date": "4/2/2026",
    "lat": 43.0751922,
    "lng": -87.8813912
  },
  {
    "title": "Piano Recital Series – \"Latin American Flavors\"",
    "description": "Date & TimeThursday, April 2, 2026 (7:30–9:30 p.m.) LocationMusic Building, Recital Hall and Virtual UWM Piano Faculty Elena Abend is joined by violinist Victoria Moreira, clarinetist Orlando Pimentel and violist…",
    "location": "Music Building, Recital Hall, 2400 E. Kenwood Blvd., Milwaukee, WI, 53211",
    "organizer": "Peck School of the Arts",
    "date": "4/2/2026",
    "lat": 43.0762821,
    "lng": -87.8798006
  },
  {
    "title": "Collaboratory & Working Group Applications Due",
    "description": "Application deadline: Friday, April 3, 11:59 PM Access complete application instructions here. Hybrid information session: This event has passed. Watch the recording via Teams (UWM login required). About C21 believes…",
    "location": "Wisconsin",
    "organizer": "Center for 21st Century Studies",
    "date": "4/3/2026",
    "lat": 43.7844397,
    "lng": -88.7878678
  },
  {
    "title": "End of Year Success Planning | New TA Training Session",
    "description": "Overview This session helps you finish strong and prepare for spring success. You will learn more about end of course evaluations from the Office of Assessment and Institutional Research (OAIR)…",
    "location": "Engelmann B73, 2033 E. Hartford Ave., Milwaukee, WI, 53211, United States",
    "organizer": "Center for Excellence in Teaching & Learning",
    "date": "4/3/2026",
    "lat": 43.0768338,
    "lng": -87.8850989
  },
  {
    "title": "End of Year Success Planning | New TA Training Session",
    "description": "Overview This session helps you finish strong and prepare for spring success. You will learn more about end of course evaluations from the Office of Assessment and Institutional Research (OAIR)…",
    "location": "Engelmann B73, 2033 E. Hartford Ave., Milwaukee, WI, 53211, United States",
    "organizer": "Center for Excellence in Teaching & Learning",
    "date": "4/3/2026",
    "lat": 43.0768338,
    "lng": -87.8850989
  },
  {
    "title": "Early Voting- MKE Residents",
    "description": "Early voting will take place March 24-28, 2026, 10am-5pm; March 29, 2026, 10am-2pm; and March 30- April 4, 2026, 10am-5pm in Zelazo Center for Milwaukee residents only. For more information…",
    "location": "Zelazo Center for the Performing Arts (ZEL), 2419 East Kenwood Blvd, Milwaukee, WI, 53211, United States",
    "organizer": "Student Affairs",
    "date": "4/3/2026",
    "lat": 43.0742889,
    "lng": -87.8797889
  },
  {
    "title": "Milwaukee Athletics Women's Tennis vs Youngstown State",
    "description": "Milwaukee Athletics Women's Tennis vs Youngstown State",
    "location": "Milwaukee, Wis., River Glen Elite",
    "organizer": "Panther Athletics",
    "date": "4/3/2026",
    "lat": 43.1476203,
    "lng": -87.9352746
  },
  {
    "title": "Milwaukee Athletics Men's Track & Field at Ashton May Invite - Hosted by La Crosse",
    "description": "Milwaukee Athletics Men's Track & Field at Ashton May Invite - Hosted by La Crosse",
    "location": "La Crosse, Wis., Veterans Memorial Field Sports Complex",
    "organizer": "Panther Athletics",
    "date": "4/3/2026",
    "lat": 43.816843,
    "lng": -91.22639009999999
  },
  {
    "title": "Milwaukee Athletics Women's Track & Field at Ashton May Invite - Hosted by La Crosse",
    "description": "Milwaukee Athletics Women's Track & Field at Ashton May Invite - Hosted by La Crosse",
    "location": "La Crosse, Wis., Veterans Memorial Field Sports Complex",
    "organizer": "Panther Athletics",
    "date": "4/3/2026",
    "lat": 43.816843,
    "lng": -91.22639009999999
  },
  {
    "title": "Engineering and Computer Science Information Session",
    "description": "Curious about what it’s really like to study engineering or computer science at UWM? Join us for a College of Engineering & Applied Science information session, where you’ll connect one-on-one…",
    "location": "EMS E270, 3200 North Cramer Street, Milwaukee, WI, 53211-3029, United States",
    "organizer": "Engineering",
    "date": "4/3/2026",
    "lat": 43.0756827,
    "lng": -87.8864139
  },
  {
    "title": "Lead The Change",
    "description": "The world isn’t just around you, it’s also in your hands and you have the power to make change! Join us for Lead the Change as we engage in community-style discussions and…",
    "location": "UWM Student Union (UN), 2200 East Kenwood Blvd., Milwaukee, WI, 53211, United States",
    "organizer": "Student Affairs",
    "date": "4/3/2026",
    "lat": 43.0751922,
    "lng": -87.8813912
  },
  {
    "title": "Milwaukee Athletics Baseball vs Youngstown State",
    "description": "Milwaukee Athletics Baseball vs Youngstown State TV: ESPN+ Streaming Video: https://www.espn.com/watch/player/_/id/b57bd6f3-fde5-4732-87cd-a77db382cde5 Streaming Audio: http://mkepanthers.com/showcase?Live=140 Tickets: https://am.ticketmaster.com/uwm/buy/Baseball?utm_source=ig&utm_medium=social&utm_content=link_in_bio&fbclid=PAZXh0bgNhZW0CMTEAc3J0YwZhcHBfaWQMMjU2MjgxMDQwNTU4AAGnDWkYqtaGgGRy6Lw_HGjYmlsul1vXgn-PhtTMIPgyaq0c2d7H2nklBMaFZwQ_aem_DspH1UH5D4lZROGv9AFcPQ",
    "location": "Franklin, Wis., Franklin Field",
    "organizer": "Panther Athletics",
    "date": "4/3/2026",
    "lat": 42.9176698,
    "lng": -88.0155147
  },
  {
    "title": "First Year Exhibition Opening Reception",
    "description": "Please join us for the opening reception of the First Year Exhibition! The First Year Program in Art and Design at UWM’s Peck School of the Arts has a long…",
    "location": "UWM Student Union (UN), 2200 East Kenwood Blvd., Milwaukee, WI, 53211, United States",
    "organizer": "Student Affairs",
    "date": "4/3/2026",
    "lat": 43.0751922,
    "lng": -87.8813912
  },
  {
    "title": "Latin American Film Series: Gardenia Perfume",
    "description": "When she discovers an unexpected gift for planning funerals, Isabel begins helping her neighbors transform loss into moments of humor and care. Free and open to the public at the UWM…",
    "location": "UWM Student Union, 2200 East Kenwood Blvd, Milwaukee, WI, 53212, United States",
    "organizer": "UWM Campus Events Calendar",
    "date": "4/3/2026",
    "lat": 43.0751922,
    "lng": -87.8813912
  },
  {
    "title": "Gardenia Perfume (Perfume de gardenias)",
    "description": "Director: Gisela Rosario Ramos (Macha Colón) 2021 Puerto Rico, Colombia | 97 minutes *Join us after the film for a short discussion with UWM film studies professor Gilberto Blasini! Isabel,…",
    "location": "UWM Student Union (UN), 2200 East Kenwood Blvd., Milwaukee, WI, 53211, United States",
    "organizer": "Student Affairs",
    "date": "4/3/2026",
    "lat": 43.0751922,
    "lng": -87.8813912
  },
  {
    "title": "Milwaukee Athletics Women's Tennis vs Cleveland State - New Match Address: 5750 N. Glen Park Rd., Glendale, Wis., 53209",
    "description": "Milwaukee Athletics Women's Tennis vs Cleveland State - New Match Address: 5750 N. Glen Park Rd., Glendale, Wis., 53209",
    "location": "Glendale, Wis., North Shore Elite",
    "organizer": "Panther Athletics",
    "date": "4/4/2026",
    "lat": 43.1220943,
    "lng": -87.9297558
  },
  {
    "title": "Early Voting- MKE Residents",
    "description": "Early voting will take place March 24-28, 2026, 10am-5pm; March 29, 2026, 10am-2pm; and March 30- April 4, 2026, 10am-5pm in Zelazo Center for Milwaukee residents only. For more information…",
    "location": "Zelazo Center for the Performing Arts (ZEL), 2419 East Kenwood Blvd, Milwaukee, WI, 53211, United States",
    "organizer": "Student Affairs",
    "date": "4/4/2026",
    "lat": 43.0742889,
    "lng": -87.8797889
  },
  {
    "title": "Milwaukee Athletics Baseball vs Youngstown State - Egg Hunt & Candy Giveaway",
    "description": "Milwaukee Athletics Baseball vs Youngstown State - Egg Hunt & Candy Giveaway TV: ESPN+ Streaming Video: https://www.espn.com/watch/player/_/id/f419804a-8900-4d6e-b2d1-372ffb6c1bc0 Streaming Audio: http://mkepanthers.com/showcase?Live=141 Tickets: https://am.ticketmaster.com/uwm/buy/Baseball?utm_source=ig&utm_medium=social&utm_content=link_in_bio&fbclid=PAZXh0bgNhZW0CMTEAc3J0YwZhcHBfaWQMMjU2MjgxMDQwNTU4AAGnDWkYqtaGgGRy6Lw_HGjYmlsul1vXgn-PhtTMIPgyaq0c2d7H2nklBMaFZwQ_aem_DspH1UH5D4lZROGv9AFcPQ",
    "location": "Franklin, Wis., Franklin Field",
    "organizer": "Panther Athletics",
    "date": "4/4/2026",
    "lat": 42.9176698,
    "lng": -88.0155147
  },
  {
    "title": "Latin American Film Series: The Visitor",
    "description": "Determined to reconnect with his teenage daughter, Humberto faces the quiet judgment of her influential evangelical grandparents while searching for work and a sense of dignity. Free and open to…",
    "location": "UWM Student Union, 2200 East Kenwood Blvd, Milwaukee, WI, 53212, United States",
    "organizer": "UWM Campus Events Calendar",
    "date": "4/4/2026",
    "lat": 43.0751922,
    "lng": -87.8813912
  },
  {
    "title": "The Visitor (El visitante)",
    "description": "Director: Martín Boulocq 2022 Bolivia | 87 minutes Fresh out of prison, Humberto moves cautiously through a world that no longer waits for him. Determined to reconnect with his teenage…",
    "location": "UWM Student Union (UN), 2200 East Kenwood Blvd., Milwaukee, WI, 53211, United States",
    "organizer": "Student Affairs",
    "date": "4/4/2026",
    "lat": 43.0751922,
    "lng": -87.8813912
  },
  {
    "title": "Latin American Film Series: Tiger",
    "description": "Pablo is sent to a camp run by his father, where strength is demanded and fear is treated as failure. Free and open to the public at the UWM Union…",
    "location": "UWM Student Union, 2200 East Kenwood Blvd, Milwaukee, WI, 53212, United States",
    "organizer": "UWM Campus Events Calendar",
    "date": "4/4/2026",
    "lat": 43.0751922,
    "lng": -87.8813912
  },
  {
    "title": "Fall 2026 Textbook Submission Deadline",
    "description": "All course material adoptions should be submitted to the eCampus Bookstore so that students know what the course texts will be for their courses.",
    "location": "WI",
    "organizer": "Center for Excellence in Teaching & Learning",
    "date": "4/6/2026",
    "lat": 43.7844397,
    "lng": -88.7878678
  },
  {
    "title": "Gen Ed Charette | Mathematics & Quantitative Reasoning",
    "description": "Overview Teaching a General Education course? Join us for a collaborative General Education assignment charette, where faculty will exchange peer feedback on course assignments focused on refining course assignments to…",
    "location": "Engelmann B73, 2033 E. Hartford Ave., Milwaukee, WI, 53211, United States",
    "organizer": "Center for Excellence in Teaching & Learning",
    "date": "4/6/2026",
    "lat": 43.0768338,
    "lng": -87.8850989
  },
  {
    "title": "Gen Ed Charette | Mathematics & Quantitative Reasoning",
    "description": "Overview Teaching a General Education course? Join us for a collaborative General Education assignment charette, where faculty will exchange peer feedback on course assignments focused on refining course assignments to…",
    "location": "Engelmann B73, 2033 E. Hartford Ave., Milwaukee, WI, 53211, United States",
    "organizer": "Center for Excellence in Teaching & Learning",
    "date": "4/6/2026",
    "lat": 43.0768338,
    "lng": -87.8850989
  },
  {
    "title": "First Year Musical Theatre Showcase",
    "description": "Date & TimeMonday, April 6, 2026 (6–7:30 p.m.) LocationMusic Building, Recital Hall and Virtual UWM’s first-year Musical Theatre students return to the stage for their spring showcase—an energetic mix of songs, scenes, and storytelling…",
    "location": "Music Building, Recital Hall, 2400 E. Kenwood Blvd., Milwaukee, WI, 53211",
    "organizer": "Peck School of the Arts",
    "date": "4/6/2026",
    "lat": 43.0762821,
    "lng": -87.8798006
  },
  {
    "title": "March Madness Finale Fest",
    "description": "Join us to watch the NCAA Men’s Basketball March Madness finale with fellow students as the tournament’s biggest game tips off at 7:30pm (doors open at 7pm). Enjoy interactive games…",
    "location": "UWM Student Union (UN), 2200 East Kenwood Blvd., Milwaukee, WI, 53211, United States",
    "organizer": "Student Affairs",
    "date": "4/6/2026",
    "lat": 43.0751922,
    "lng": -87.8813912
  },
  {
    "title": "Java and Job Talk: Generac",
    "description": "Stop by to grab a free cup of java/tea and network with industry representatives in a casual setting.  This is a great way to learn about opportunities and talk shop…",
    "location": "Kulwicki Garage, 3200 N Cramer St, Milwaukee, WI, 53211",
    "organizer": "Center for Student Experience & Talent",
    "date": "4/7/2026",
    "lat": 43.0756827,
    "lng": -87.8864139
  },
  {
    "title": "VA Mobile Vet Center",
    "description": "The VA Mobile Vet Center visits the UWM campus every month, parked on Maryland Ave., and offers confidential help for Veterans, service members, and their families at no cost in…",
    "location": "Architecture & Urban Planning (AUP), 2131 East Hartford Ave., Milwaukee, WI, 53211, United States",
    "organizer": "Student Affairs",
    "date": "4/7/2026",
    "lat": 43.0774493,
    "lng": -87.8832639
  },
  {
    "title": "Ask a Nurse",
    "description": "Stop by the new Ask a Nurse table to speak with a nurse from the Student Health and Wellness Center. Ask a medical question, learn about SHAW services, sign up for the Patient Portal, and so much more.",
    "location": "Sandburg Residence Halls (SAN), 3400 North Maryland Ave,, Milwaukee, WI, 53212, United States",
    "organizer": "Student Affairs",
    "date": "4/7/2026",
    "lat": 43.0791781,
    "lng": -87.88182760000001
  },
  {
    "title": "Gen Ed Charette | Communication & Literacy",
    "description": "Overview Teaching a General Education course? Join us for a collaborative General Education assignment charette, where faculty will exchange peer feedback on course assignments focused on refining course assignments to…",
    "location": "Engelmann B73, 2033 E. Hartford Ave., Milwaukee, WI, 53211, United States",
    "organizer": "Center for Excellence in Teaching & Learning",
    "date": "4/7/2026",
    "lat": 43.0768338,
    "lng": -87.8850989
  },
  {
    "title": "Club Soda",
    "description": "Club Soda (formerly known as ‘Sober Socials’) is a weekly get-together with students who choose not to use for whatever reason. It is a great place to meet like-minded people…",
    "location": "UWM Student Union (UN), 2200 East Kenwood Blvd., Milwaukee, WI, 53211, United States",
    "organizer": "Student Affairs",
    "date": "4/7/2026",
    "lat": 43.0751922,
    "lng": -87.8813912
  },
  {
    "title": "Lunch & Learn",
    "description": "Leadership Lunch & Learn: Quick Hacks for Success Looking to level up your leadership skills in just 20 minutes? Drop in for a bite to eat and a quick interactive…",
    "location": "UWM Student Union (UN), 2200 East Kenwood Blvd., Milwaukee, WI, 53211, United States",
    "organizer": "Student Affairs",
    "date": "4/7/2026",
    "lat": 43.0751922,
    "lng": -87.8813912
  },
  {
    "title": "Gen Ed Charette | Communication & Literacy",
    "description": "Overview Teaching a General Education course? Join us for a collaborative General Education assignment charette, where faculty will exchange peer feedback on course assignments focused on refining course assignments to…",
    "location": "Engelmann B73, 2033 E. Hartford Ave., Milwaukee, WI, 53211, United States",
    "organizer": "Center for Excellence in Teaching & Learning",
    "date": "4/7/2026",
    "lat": 43.0768338,
    "lng": -87.8850989
  },
  {
    "title": "W.O.M.A.N.",
    "description": "Searching for a weekly safe place for women or anyone affected misogyny?  Come to W.O.M.A.N where you can learn how to empower and to feel empowered with fellow allies.  Women Overcoming Misogyny And Noise…",
    "location": "UWM Student Union (UN), 2200 East Kenwood Blvd., Milwaukee, WI, 53211, United States",
    "organizer": "Student Affairs",
    "date": "4/7/2026",
    "lat": 43.0751922,
    "lng": -87.8813912
  },
  {
    "title": "Milwaukee Athletics Baseball vs Iowa - Students Day | Sunglasses Giveaway",
    "description": "Milwaukee Athletics Baseball vs Iowa - Students Day | Sunglasses Giveaway Streaming Audio: http://mkepanthers.com/showcase?Live=142 Tickets: https://am.ticketmaster.com/uwm/buy/Baseball?utm_source=ig&utm_medium=social&utm_content=link_in_bio&fbclid=PAZXh0bgNhZW0CMTEAc3J0YwZhcHBfaWQMMjU2MjgxMDQwNTU4AAGnDWkYqtaGgGRy6Lw_HGjYmlsul1vXgn-PhtTMIPgyaq0c2d7H2nklBMaFZwQ_aem_DspH1UH5D4lZROGv9AFcPQ",
    "location": "Franklin, Wis., Franklin Field",
    "organizer": "Panther Athletics",
    "date": "4/7/2026",
    "lat": 42.9176698,
    "lng": -88.0155147
  },
  {
    "title": "En-Vision Embodied Writing Workshop",
    "description": "Hosted by Queer Zine Archive Project (QZAP) co-founder Milo Miller, this workshop will blend mindfulness and creative writing to explore themes of slowing down, radical self-care, critical disability studies, and…",
    "location": "Kenwood Interdisciplinary Research Complex, Room 1150, 3135 N Maryland Ave, Milwaukee, Wisconsin, 53211",
    "organizer": "Center for 21st Century Studies",
    "date": "4/7/2026",
    "lat": 43.0754876,
    "lng": -87.8839258
  },
  {
    "title": "Sound Healing Journey",
    "description": "Join us for a grounding sound meditation led by certified yoga and sound practitioner, Parisa Shirazi Chavoya. Session is beginner-friendly, trauma-informed, & open to all.",
    "location": "UWM Student Union (UN), 2200 East Kenwood Blvd., Milwaukee, WI, 53211, United States",
    "organizer": "Student Affairs",
    "date": "4/7/2026",
    "lat": 43.0751922,
    "lng": -87.8813912
  },
  {
    "title": "En-Vision Embodied Writing Workshop",
    "description": "Hosted by the Center for 21st Century Studies and Queer Zine Archive Project (QZAP) co-founder Milo Miller, this workshop will blend mindfulness and creative writing to explore themes of slowing down, radical…",
    "location": "UWM Kenwood Interdisciplinary Research Complex, Room 1150, 3135 N. Maryland Ave., Milwaukee, WI, 53211, United States",
    "organizer": "Letters & Science",
    "date": "4/7/2026",
    "lat": 43.0754876,
    "lng": -87.8839258
  },
  {
    "title": "Premieres of New Music",
    "description": "Date & TimeTuesday, April 7, 2026 (7:30–9 p.m.) LocationMusic Building, Recital Hall and Virtual The Composition & Technology program will present a concert of original works by UWM students. The…",
    "location": "Music Building, Recital Hall, 2400 E. Kenwood Blvd., Milwaukee, WI, 53211",
    "organizer": "Peck School of the Arts",
    "date": "4/7/2026",
    "lat": 43.0762821,
    "lng": -87.8798006
  },
  {
    "title": "Songs for a New World",
    "description": "Date & TimeWednesday–Saturday, April 8–11, 2026 (7:30–9:30 p.m.)Sunday, April 12, 2026 (2–4 p.m.) LocationKenilworth Square East, Kenilworth Five-0-Eight The first musical from three-time Tony Award winner Jason Robert Brown, Songs for a…",
    "location": "Kenilworth Square East, Kenilworth Five-0-Eight, 2155 N. Prospect Ave., Milwaukee, WI, 53202",
    "organizer": "Peck School of the Arts",
    "date": "4/8/2026",
    "lat": 43.0582553,
    "lng": -87.8858417
  },
  {
    "title": "VA Mobile Vet Center",
    "description": "The VA Mobile Vet Center visits the UWM campus every month, parked on Maryland Ave., and offers confidential help for Veterans, service members, and their families at no cost in…",
    "location": "Architecture & Urban Planning (AUP), 2131 East Hartford Ave., Milwaukee, WI, 53211, United States",
    "organizer": "Student Affairs",
    "date": "4/8/2026",
    "lat": 43.0774493,
    "lng": -87.8832639
  },
  {
    "title": "Habitat Restoration At Schlitz Audubon Nature Center",
    "description": "Join us for a morning of habitat restoration on a 185 acre nature center, along the shoreline of Lake Michigan. This will be an incredible time to step out doors,…",
    "location": "Schlitz Audubon Nature Center, 1111 East Brown Deer Road, Bayside, WI, 53217",
    "organizer": "Center for Student Experience & Talent",
    "date": "4/8/2026",
    "lat": 43.1751976,
    "lng": -87.88517519999999
  },
  {
    "title": "Gen Ed Charette | Social & Behavioral Science",
    "description": "Overview Teaching a General Education course? Join us for a collaborative General Education assignment charette, where faculty will exchange peer feedback on course assignments focused on refining course assignments to…",
    "location": "Engelmann B73, 2033 E. Hartford Ave., Milwaukee, WI, 53211, United States",
    "organizer": "Center for Excellence in Teaching & Learning",
    "date": "4/8/2026",
    "lat": 43.0768338,
    "lng": -87.8850989
  },
  {
    "title": "On-campus Employment Resume and Application Workshop",
    "description": "For students who have applied to on-campus employment several times and want to learn how to improve their application documents. Learn what on-campus employers look for in a resume Learn…",
    "location": "Student Union E153, 2200 E Kenwood Blvd., Milwaukee, WI, 53211",
    "organizer": "Center for Student Experience & Talent",
    "date": "4/8/2026",
    "lat": 43.0751922,
    "lng": -87.8813912
  },
  {
    "title": "Hula & Polynesian Culture Workshop Series",
    "description": "Hula & Polynesian Culture Workshop Series Join the Electa Quinney Institute for American Indian Education for a weekly cultural immersion experience led by Artist-In-Residence Malia Chow from Nā Hale Studios…",
    "location": "Merrill Hall 142, 2512 E. Kenwood, Milwaukee, Wiscosin, 53211",
    "organizer": "Electa Quinney Institute",
    "date": "4/8/2026",
    "lat": 43.07469529999999,
    "lng": -87.8788631
  },
  {
    "title": "Snack & Chat",
    "description": "Join fellow yappers as we watch clips from popular TV shows and movies and discuss what makes a relationship healthy. Snacks provided!",
    "location": "UWM Student Union (UN), 2200 East Kenwood Blvd., Milwaukee, WI, 53211, United States",
    "organizer": "Student Affairs",
    "date": "4/8/2026",
    "lat": 43.0751922,
    "lng": -87.8813912
  },
  {
    "title": "NSF Graduate Research Fellowship Program Hybrid Info Session",
    "description": "Please join the UWM Office of Undergraduate Research and the Graduate School in Bolton Hall, Room 192 (or on Microsoft Teams), to learn about an opportunity to have your research…",
    "location": "Bolton Hall, 3210 North Maryland Ave, Milwaukee, WI, 53211, United States",
    "organizer": "UWM Campus Events Calendar",
    "date": "4/8/2026",
    "lat": 43.0758524,
    "lng": -87.88126319999999
  },
  {
    "title": "Wednesday Well-Being: Spring 2026",
    "description": "Join us every Wednesday in the NWQD 3rd-floor student lounge for rotating activities everyone can enjoy.Whether you are coming to see an advisor, looking for ways to de-stress, or make…",
    "location": "NWQD 3rd Floor, 2025 E Newport Ave, Milwaukee, WI, 53211, United States",
    "organizer": "School of Information Studies",
    "date": "4/8/2026",
    "lat": 43.078332,
    "lng": -87.88436279999999
  },
  {
    "title": "Real Estate Certificate Information Session",
    "description": "Boost your career with UWM’s redesigned Real Estate Certificate. You’ll build real financial, analytical, and management skills while exploring every corner of the industry—from development and investment to property and…",
    "location": "Lubar Hall, N126",
    "organizer": "Lubar College of Business",
    "date": "4/8/2026",
    "lat": 43.076036,
    "lng": -87.8819958
  },
  {
    "title": "Gen Ed Charette | Social & Behavioral Science",
    "description": "Overview Teaching a General Education course? Join us for a collaborative General Education assignment charette, where faculty will exchange peer feedback on course assignments focused on refining course assignments to…",
    "location": "Engelmann B73, 2033 E. Hartford Ave., Milwaukee, WI, 53211, United States",
    "organizer": "Center for Excellence in Teaching & Learning",
    "date": "4/8/2026",
    "lat": 43.0768338,
    "lng": -87.8850989
  },
  {
    "title": "Zilber College of Public Health Career Night",
    "description": "The Zilber College of Public Health Career Night provides the opportunity to participate in professional networking for those currently majoring in or wanting to learn more about public health, kinesiology,…",
    "location": "UWM Union, Wisconsin Room, 2200 E Kenwood Blvd, Milwaukee, WI, 53211, United States",
    "organizer": "Zilber College of Public Health",
    "date": "4/8/2026",
    "lat": 43.07532459999999,
    "lng": -87.88085439999999
  },
  {
    "title": "Zilber Career Night",
    "description": "Network with health-related employers to learn about current and future internships, volunteer opportunities, and full-time employment and have your career-related questions answered. And take a professional headshot, on-site, with the…",
    "location": "UWM Union Wisconsin Room, 2200 E Kenwood Blvd, Milwaukee, WI, 53211",
    "organizer": "Center for Student Experience & Talent",
    "date": "4/8/2026",
    "lat": 43.07532459999999,
    "lng": -87.88085439999999
  },
  {
    "title": "Lyrical Sanctuary Featuring Social Cig",
    "description": "6-6:45 p.m. | Creative Writing Workshop | Union 119  Ready to turn your ideas into songs? Join Milwaukee based songwriter, Parker Schultz of the indie rock project, Social Cig, for a fun, creative workshop…",
    "location": "UWM Student Union (UN), 2200 East Kenwood Blvd., Milwaukee, WI, 53211, United States",
    "organizer": "Student Affairs",
    "date": "4/8/2026",
    "lat": 43.0751922,
    "lng": -87.8813912
  },
  {
    "title": "Artists Now! Guest Lecture Series: Monika Plioplyte",
    "description": "Date & TimeWednesday, April 8, 2026 (7:30–9 p.m.) LocationVirtual Chicago-based artist Monika Plioplyte was born in Lithuania and immigrated to the US in her early teens. Her practice is driven…",
    "location": "https://uwm.edu/arts/event/artists-now-guest-lecture-series-monika-plioplyte/",
    "organizer": "Peck School of the Arts",
    "date": "4/8/2026",
    "lat": 43.0751758,
    "lng": -87.8815483
  },
  {
    "title": "Java and Job Talk: Kohler",
    "description": "Stop by to grab a free cup of java/tea and network with industry representatives in a casual setting.  This is a great way to learn about opportunities and talk shop…",
    "location": "Kulwicki Garage, 3200 N Cramer St, Milwaukee, WI, 53211",
    "organizer": "Center for Student Experience & Talent",
    "date": "4/9/2026",
    "lat": 43.0756827,
    "lng": -87.8864139
  },
  {
    "title": "VA Mobile Vet Center",
    "description": "The VA Mobile Vet Center visits the UWM campus every month, parked on Maryland Ave., and offers confidential help for Veterans, service members, and their families at no cost in…",
    "location": "Architecture & Urban Planning (AUP), 2131 East Hartford Ave., Milwaukee, WI, 53211, United States",
    "organizer": "Student Affairs",
    "date": "4/9/2026",
    "lat": 43.0774493,
    "lng": -87.8832639
  },
  {
    "title": "Zilber College of Public Health Seminar - How Culture and Local Ecosystems Can Affect Dietary Exposures to Environmental Contaminants",
    "description": "Presented by  Matthew Dellinger, PhD Associate Professor, Division of Epidemiology Medical College of Wisconsin Dr. Dellinger is Associate Professor in the Institute for Health & Humanity at the Medical College…",
    "location": "KIRC Room 1150, 3135 N. Maryland Ave., Milwaukee, WI, 53211, United States",
    "organizer": "Zilber College of Public Health",
    "date": "4/9/2026",
    "lat": 43.0754876,
    "lng": -87.8839258
  },
  {
    "title": "Gen Ed Charette | Humanities & Arts",
    "description": "Overview Teaching a General Education course? Join us for a collaborative General Education assignment charette, where faculty will exchange peer feedback on course assignments focused on refining course assignments to…",
    "location": "Engelmann B73, 2033 E. Hartford Ave., Milwaukee, WI, 53211, United States",
    "organizer": "Center for Excellence in Teaching & Learning",
    "date": "4/9/2026",
    "lat": 43.0768338,
    "lng": -87.8850989
  },
  {
    "title": "Milwaukee Athletics Men's Track & Field at Duke Invitational - Hosted by Duke",
    "description": "Milwaukee Athletics Men's Track & Field at Duke Invitational - Hosted by Duke",
    "location": "Durham, N.C., Morris Williams Stadium",
    "organizer": "Panther Athletics",
    "date": "4/9/2026",
    "lat": 35.9963062,
    "lng": -78.9450717
  },
  {
    "title": "Milwaukee Athletics Women's Track & Field at Duke Invitational - Hosted by Duke",
    "description": "Milwaukee Athletics Women's Track & Field at Duke Invitational - Hosted by Duke",
    "location": "Durham, N.C., Morris Williams Stadium",
    "organizer": "Panther Athletics",
    "date": "4/9/2026",
    "lat": 35.9963062,
    "lng": -78.9450717
  },
  {
    "title": "Gen Ed Charette | Humanities & Arts",
    "description": "Overview Teaching a General Education course? Join us for a collaborative General Education assignment charette, where faculty will exchange peer feedback on course assignments focused on refining course assignments to…",
    "location": "Engelmann B73, 2033 E. Hartford Ave., Milwaukee, WI, 53211, United States",
    "organizer": "Center for Excellence in Teaching & Learning",
    "date": "4/9/2026",
    "lat": 43.0768338,
    "lng": -87.8850989
  },
  {
    "title": "Truman Scholarship Info Session",
    "description": "Join us to learn about a national $30,000 scholarship opportunity for graduate school. This session is for undergraduate students in their first or second year who are considering graduate school…",
    "location": "Vogel Hall, 3253 North Downer Ave, Milwaukee, WI, 53212, United States",
    "organizer": "UWM Campus Events Calendar",
    "date": "4/9/2026",
    "lat": 43.0768085,
    "lng": -87.8784113
  },
  {
    "title": "Power of the Pen: Natural World",
    "description": "4-5pm | Union Concourse  Join us for a reflective nature walk where we’ll pause, observe, and draw inspiration from the landscapes around us. Through guided prompts and gentle exploration, participants will craft poetry…",
    "location": "UWM Student Union (UN), 2200 East Kenwood Blvd., Milwaukee, WI, 53211, United States",
    "organizer": "Student Affairs",
    "date": "4/9/2026",
    "lat": 43.0751922,
    "lng": -87.8813912
  },
  {
    "title": "Financial Planning Certificate Information Session",
    "description": "Launch your career as a financial advisor with Lubar’s new certificate in Financial Planning. You’ll learn how to assess a client’s full financial picture and guide them toward both short‑…",
    "location": "Lubar Hall, S195, 3202 N. Maryland Ave., Milwaukee, WI, 53201, United States",
    "organizer": "Lubar College of Business",
    "date": "4/9/2026",
    "lat": 43.076036,
    "lng": -87.8819958
  },
  {
    "title": "Investment Management Certificate Information Session",
    "description": "In the Lubar College’s IMCP, you’ll manage real portfolios while earning your degree. As part of our CFA Institute University Affiliation, you’ll learn by doing—building hands‑on investment skills that set…",
    "location": "Lubar Hall, S195, 3202 N. Maryland Ave., Milwaukee, WI, 53201, United States",
    "organizer": "Lubar College of Business",
    "date": "4/9/2026",
    "lat": 43.076036,
    "lng": -87.8819958
  },
  {
    "title": "Marden Lecture Series Presents: Juggling Counts",
    "description": "Presented by Prof. Steve Butler, Morrill, Professor of Mathematics at Iowa State University Mathematics is a language which can help us describe and explore patterns. One source of patterns that…",
    "location": "UWM Lubar Hall, Room N140, 3202 N. Maryland Ave., Milwaukee, WI, 53211, United States",
    "organizer": "Letters & Science",
    "date": "4/9/2026",
    "lat": 43.076036,
    "lng": -87.8819958
  },
  {
    "title": "Didi",
    "description": "New Releases | Free For Everyone! In 2008, during the last month of summer before high school begins, an impressionable 13-year-old Taiwanese American boy learns what his family can’t teach…",
    "location": "UWM Student Union (UN), 2200 East Kenwood Blvd., Milwaukee, WI, 53211, United States",
    "organizer": "Student Affairs",
    "date": "4/9/2026",
    "lat": 43.0751922,
    "lng": -87.8813912
  },
  {
    "title": "Asian American and Pacific Islander Heritage Screening: Didi",
    "description": "Join us for a special Asian American and Pacific Islander Heritage Month screening of Dìdi (弟弟), directed by Sean Wang. Hosted in collaboration with Sociocultural Programming, Chi Sigma Tau, and…",
    "location": "UWM Student Union (UN), 2200 East Kenwood Blvd., Milwaukee, WI, 53211, United States",
    "organizer": "Student Affairs",
    "date": "4/9/2026",
    "lat": 43.0751922,
    "lng": -87.8813912
  },
  {
    "title": "Special Features | Producing Magic",
    "description": "Date & TimeThursday, April 9, 2026 (6:30–8:30 p.m.) LocationVirtual This virtual workshop focuses on the producing and pre-production strategies that set short films up for creative and logistical success. Students…",
    "location": "https://uwm.edu/arts/event/special-features-producing-magic/",
    "organizer": "Peck School of the Arts",
    "date": "4/9/2026",
    "lat": 43.0751758,
    "lng": -87.8815483
  },
  {
    "title": "Milwaukee Athletics Men's Track & Field at Marquette Invitational - Hosted by Marquette",
    "description": "Milwaukee Athletics Men's Track & Field at Marquette Invitational - Hosted by Marquette",
    "location": "Milwaukee, Wis., Shimek Track & Field Facility",
    "organizer": "Panther Athletics",
    "date": "4/9/2026",
    "lat": 43.0410344,
    "lng": -87.9096783
  },
  {
    "title": "Milwaukee Athletics Women's Track & Field at Marquette Invitational - Hosted by Marquette",
    "description": "Milwaukee Athletics Women's Track & Field at Marquette Invitational - Hosted by Marquette",
    "location": "Milwaukee, Wis., Shimek Track & Field Facility",
    "organizer": "Panther Athletics",
    "date": "4/9/2026",
    "lat": 43.0410344,
    "lng": -87.9096783
  },
  {
    "title": "Piano Studio Recital",
    "description": "Date & TimeThursday, April 9, 2026 (7:30–9 p.m.) LocationMusic Building, Recital Hall and Virtual The UWM Piano Studio will present a recital of solo and chamber music repertoire. Program TBD.…",
    "location": "Music Building, Recital Hall, 2400 E. Kenwood Blvd., Milwaukee, WI, 53211",
    "organizer": "Peck School of the Arts",
    "date": "4/9/2026",
    "lat": 43.0762821,
    "lng": -87.8798006
  },
  {
    "title": "Makers! 26 Sculpture 26 Focus!26 Student Exhibitions",
    "description": "Date & TimeApril 10–25, 2026Wednesday–Fridays (2–7 p.m.), Saturdays (11 a.m.–3 p.m.)Reception: Friday, April 10 (6–8 p.m.) LocationKenilworth Square East, 3rd Floor Gallery These “best of” exhibitions feature student work from…",
    "location": "Kenilworth Square East, 3rd Floor Gallery, 2155 N. Prospect Ave., Milwaukee, WI, 53202",
    "organizer": "Peck School of the Arts",
    "date": "4/10/2026",
    "lat": 43.0582718,
    "lng": -87.8858307
  },
  {
    "title": "A ROCKIN' Midsummer Night's Dream",
    "description": "Date & TimeApril 10–26, 2026 (2 pm. | 7:30 p.m.) LocationSkylight Music Theatre In a first-time collaboration between Skylight Music Theatre and the UWM Department of Theatre, A ROCKIN’ Midsummer…",
    "location": "Skylight Music Theatre, 158 N. Broadway, Milwaukee, 53202",
    "organizer": "Peck School of the Arts",
    "date": "4/10/2026",
    "lat": 43.0318454,
    "lng": -87.906673
  },
  {
    "title": "2026 Community Empowerment & Justice Symposium",
    "description": "The UWM Honors College, the Division of Community Empowerment and Institutional Inclusivity, Student Involvement, and the Office of Undergraduate Research invite all to attend the 2026 Community Empowerment &…",
    "location": "Sheldon B. Lubar College of Business, 3202 N. Maryland Avenue, Milwaukee, WI, 53211, United States",
    "organizer": "Division of Community Empowerment and Institutional Inclusivity",
    "date": "4/10/2026",
    "lat": 43.07604389999999,
    "lng": -87.8824595
  },
  {
    "title": "Milwaukee Athletics Men's Track & Field at Duke Invitational - Hosted by Duke",
    "description": "Milwaukee Athletics Men's Track & Field at Duke Invitational - Hosted by Duke",
    "location": "Durham, N.C., Morris Williams Stadium",
    "organizer": "Panther Athletics",
    "date": "4/10/2026",
    "lat": 35.9963062,
    "lng": -78.9450717
  },
  {
    "title": "Milwaukee Athletics Women's Track & Field at Duke Invitational - Hosted by Duke",
    "description": "Milwaukee Athletics Women's Track & Field at Duke Invitational - Hosted by Duke",
    "location": "Durham, N.C., Morris Williams Stadium",
    "organizer": "Panther Athletics",
    "date": "4/10/2026",
    "lat": 35.9963062,
    "lng": -78.9450717
  },
  {
    "title": "Gen Ed Charette | Natural Science & Wellness",
    "description": "Overview Teaching a General Education course? Join us for a collaborative General Education assignment charette, where faculty will exchange peer feedback on course assignments focused on refining course assignments to…",
    "location": "Engelmann B73, 2033 E. Hartford Ave., Milwaukee, WI, 53211, United States",
    "organizer": "Center for Excellence in Teaching & Learning",
    "date": "4/10/2026",
    "lat": 43.0768338,
    "lng": -87.8850989
  },
  {
    "title": "Stand Up Paddleboard Yoga Stretching",
    "description": "Outdoor Pursuits has joined forces with Group X to provide a stand up paddleboard yoga stretching class in the Klotsche Center Pool! Our Group X instructors will guide the class…",
    "location": "Klotsche Center (KC), 3409 North Downer Ave., Milwaukee, WI, 53211, United States",
    "organizer": "Student Affairs",
    "date": "4/10/2026",
    "lat": 43.0795057,
    "lng": -87.8796776
  },
  {
    "title": "Engineering and Computer Science Information Session & Unplugged Tour with the Dean",
    "description": "Curious about what it’s really like to study engineering or computer science at UWM? Join us for a College of Engineering & Applied Science information session, where you’ll connect one-on-one…",
    "location": "EMS E270, 3200 North Cramer Street, Milwaukee, WI, 53211-3029, United States",
    "organizer": "Engineering",
    "date": "4/10/2026",
    "lat": 43.0756827,
    "lng": -87.8864139
  },
  {
    "title": "Stakeholder Capitalism: What It Is and What It Is Not",
    "description": "Featuring: Ed Freeman, University Professor, Distinguished Chair in Business Administration Professor, Olsson Professor, and Academic Director of the Institute for Business in Society at the University of Virginia Darden School…",
    "location": "Wisconsin Room, UWM Union, 2200 E. Kenwood Blvd., Milwaukee, WI, 53211, United States",
    "organizer": "Lubar College of Business",
    "date": "4/10/2026",
    "lat": 43.07532459999999,
    "lng": -87.88085439999999
  },
  {
    "title": "Returning TA Professional Development Community",
    "description": "Overview Join our monthly hybrid professional development community designed exclusively for teaching assistants! This space is all about collaboration, support, and growth. Each session provides: Peer Problem-Solving: Bring your challenges…",
    "location": "Engelmann B73, 2033 E. Hartford Ave., Milwaukee, WI, 53211, United States",
    "organizer": "Center for Excellence in Teaching & Learning",
    "date": "4/10/2026",
    "lat": 43.0768338,
    "lng": -87.8850989
  },
  {
    "title": "Returning TA Professional Development Community",
    "description": "Overview Join our monthly hybrid professional development community designed exclusively for teaching assistants! This space is all about collaboration, support, and growth. Each session provides: Peer Problem-Solving: Bring your challenges…",
    "location": "Engelmann B73, 2033 E. Hartford Ave., Milwaukee, WI, 53211, United States",
    "organizer": "Center for Excellence in Teaching & Learning",
    "date": "4/10/2026",
    "lat": 43.0768338,
    "lng": -87.8850989
  },
  {
    "title": "Lead The Change",
    "description": "The world isn’t just around you, it’s also in your hands and you have the power to make change! Join us for Lead the Change as we engage in community-style discussions and…",
    "location": "UWM Student Union (UN), 2200 East Kenwood Blvd., Milwaukee, WI, 53211, United States",
    "organizer": "Student Affairs",
    "date": "4/10/2026",
    "lat": 43.0751922,
    "lng": -87.8813912
  },
  {
    "title": "AADS Seminar Series: Legislative Politics of Genocide Recognition",
    "description": "Please join the Department of African and African Diaspora Studies for the upcoming AADS Seminar Series event: “Legislative Politics of Genocide Recognition: Investigating Committees on Anti-Black Violence in Brazil,” with…",
    "location": "Mitchell Hall, 3203 North Downer Ave, Milwaukee, WI, 53211, United States",
    "organizer": "UWM Campus Events Calendar",
    "date": "4/10/2026",
    "lat": 43.075684,
    "lng": -87.8789516
  },
  {
    "title": "Milwaukee Athletics Baseball at Oakland",
    "description": "Milwaukee Athletics Baseball at Oakland TV: ESPN+ Streaming Video: https://www.espn.com/watch/player/_/id/bc3d6cc6-29e6-4243-adb0-55fe2d343738",
    "location": "Rochester, Mich., Oakland Baseball Field",
    "organizer": "Panther Athletics",
    "date": "4/10/2026",
    "lat": 42.6736629,
    "lng": -83.21072219999999
  },
  {
    "title": "Gen Ed Charette | Natural Science & Wellness",
    "description": "Overview Teaching a General Education course? Join us for a collaborative General Education assignment charette, where faculty will exchange peer feedback on course assignments focused on refining course assignments to…",
    "location": "Engelmann B73, 2033 E. Hartford Ave., Milwaukee, WI, 53211, United States",
    "organizer": "Center for Excellence in Teaching & Learning",
    "date": "4/10/2026",
    "lat": 43.0768338,
    "lng": -87.8850989
  },
  {
    "title": "UWM Symphony Orchestra",
    "description": "Date & TimeFriday, April 10, 2026 (7:30–9:30 p.m.) LocationZelazo Center for the Performing Arts, Bader Hall Please join us for the UWM Symphony Orchestra’s spring concert. Program details TBA. UWM’s Symphony Orchestra…",
    "location": "Zelazo Center for the Performing Arts, Bader Hall, 2419 E. Kenwood Blvd., Milwaukee, WI, 53211",
    "organizer": "Peck School of the Arts",
    "date": "4/10/2026",
    "lat": 43.0742889,
    "lng": -87.8797889
  },
  {
    "title": "Milwaukee Athletics Men's Track & Field at Duke Invitational - Hosted by Duke",
    "description": "Milwaukee Athletics Men's Track & Field at Duke Invitational - Hosted by Duke",
    "location": "Durham, N.C., Morris Williams Stadium",
    "organizer": "Panther Athletics",
    "date": "4/11/2026",
    "lat": 35.9963062,
    "lng": -78.9450717
  },
  {
    "title": "Milwaukee Athletics Women's Track & Field at Duke Invitational - Hosted by Duke",
    "description": "Milwaukee Athletics Women's Track & Field at Duke Invitational - Hosted by Duke",
    "location": "Durham, N.C., Morris Williams Stadium",
    "organizer": "Panther Athletics",
    "date": "4/11/2026",
    "lat": 35.9963062,
    "lng": -78.9450717
  },
  {
    "title": "Story Cart with Symphony Swan – Stills in Milwaukee",
    "description": "Saturday, April 11, 10:30 AM – 12:30 PM Fruition MKE, 819 N 27th St, Milwaukee, WI 53208 Free and open to the public Event Details C21’s Story Cart project and…",
    "location": "Fruition MKE, 819 N 27th St, Milwaukee, Wisconsin, 53208, United States",
    "organizer": "Center for 21st Century Studies",
    "date": "4/11/2026",
    "lat": 43.0408885,
    "lng": -87.9479243
  },
  {
    "title": "Milwaukee Athletics Men's Track & Field at Marquette Invitational - Hosted by Marquette",
    "description": "Milwaukee Athletics Men's Track & Field at Marquette Invitational - Hosted by Marquette",
    "location": "Milwaukee, Wis., Shimek Track & Field Facility",
    "organizer": "Panther Athletics",
    "date": "4/11/2026",
    "lat": 43.0410344,
    "lng": -87.9096783
  },
  {
    "title": "Milwaukee Athletics Women's Track & Field at Marquette Invitational - Hosted by Marquette",
    "description": "Milwaukee Athletics Women's Track & Field at Marquette Invitational - Hosted by Marquette",
    "location": "Milwaukee, Wis., Shimek Track & Field Facility",
    "organizer": "Panther Athletics",
    "date": "4/11/2026",
    "lat": 43.0410344,
    "lng": -87.9096783
  },
  {
    "title": "Milwaukee Athletics Baseball at Oakland",
    "description": "Milwaukee Athletics Baseball at Oakland TV: ESPN+ Streaming Video: https://www.espn.com/watch/player/_/id/7b3eca20-ea6b-4823-97b6-fd10ed5ce6a2",
    "location": "Rochester, Mich., Oakland Baseball Field",
    "organizer": "Panther Athletics",
    "date": "4/11/2026",
    "lat": 42.6736629,
    "lng": -83.21072219999999
  },
  {
    "title": "Milwaukee Athletics Baseball at Oakland",
    "description": "Milwaukee Athletics Baseball at Oakland TV: ESPN+ Streaming Video: https://www.espn.com/watch/player/_/id/8ddfe41c-1335-4728-923b-47ac371ef379",
    "location": "Rochester, Mich., Oakland Baseball Field",
    "organizer": "Panther Athletics",
    "date": "4/12/2026",
    "lat": 42.6736629,
    "lng": -83.21072219999999
  },
  {
    "title": "Gen Ed Charette | Civics & Perspectives",
    "description": "Overview Teaching a General Education course? Join us for a collaborative General Education assignment charette, where faculty will exchange peer feedback on course assignments focused on refining course assignments to…",
    "location": "Engelmann B73, 2033 E. Hartford Ave., Milwaukee, WI, 53211, United States",
    "organizer": "Center for Excellence in Teaching & Learning",
    "date": "4/13/2026",
    "lat": 43.0768338,
    "lng": -87.8850989
  },
  {
    "title": "Milwaukee Athletics Baseball at Central Michigan",
    "description": "Milwaukee Athletics Baseball at Central Michigan Streaming Video: https://cmuchippewas.com/watch?Live=1203&type=Live",
    "location": "Mount Pleasant, Mich., Theunissen Stadium",
    "organizer": "Panther Athletics",
    "date": "4/13/2026",
    "lat": 43.575883,
    "lng": -84.779155
  },
  {
    "title": "Gen Ed Charette | Civics & Perspectives",
    "description": "Overview Teaching a General Education course? Join us for a collaborative General Education assignment charette, where faculty will exchange peer feedback on course assignments focused on refining course assignments to…",
    "location": "Engelmann B73, 2033 E. Hartford Ave., Milwaukee, WI, 53211, United States",
    "organizer": "Center for Excellence in Teaching & Learning",
    "date": "4/13/2026",
    "lat": 43.0768338,
    "lng": -87.8850989
  },
  {
    "title": "You Can Help! Prevent Sexual and Relationship Violence",
    "description": "During this event participants will learn how to identify potentially harmful situations, understand behaviors and attitudes that contribute to a culture of violence, and practice techniques that can help them…",
    "location": "Northwest Quadrant Building (NWQ), 2025 E Newport Ave., Milwaukee, WI, 53211, United States",
    "organizer": "Student Affairs",
    "date": "4/13/2026",
    "lat": 43.0789808,
    "lng": -87.8852727
  },
  {
    "title": "Ask a Nurse",
    "description": "Stop by the new Ask a Nurse table to speak with a nurse from the Student Health and Wellness Center. Ask a medical question, learn about SHAW services, sign up for the Patient Portal, and so much more.",
    "location": "Sandburg Residence Halls (SAN), 3400 North Maryland Ave,, Milwaukee, WI, 53212, United States",
    "organizer": "Student Affairs",
    "date": "4/14/2026",
    "lat": 43.0791781,
    "lng": -87.88182760000001
  },
  {
    "title": "4-1-4 Day",
    "description": "Happy 4-1-4 Day! Any day is a great day to celebrate Milwaukee and all that the city has to offer, but this happens to be our favorite! Enjoy light snacks,…",
    "location": "Vogel Hall (VOG), 3253 North Downer Ave, Milwaukee, WI, 53212, United States",
    "organizer": "Student Affairs",
    "date": "4/14/2026",
    "lat": 43.0768085,
    "lng": -87.8784113
  },
  {
    "title": "Club Soda",
    "description": "Club Soda (formerly known as ‘Sober Socials’) is a weekly get-together with students who choose not to use for whatever reason. It is a great place to meet like-minded people…",
    "location": "UWM Student Union (UN), 2200 East Kenwood Blvd., Milwaukee, WI, 53211, United States",
    "organizer": "Student Affairs",
    "date": "4/14/2026",
    "lat": 43.0751922,
    "lng": -87.8813912
  },
  {
    "title": "Lunch & Learn",
    "description": "Leadership Lunch & Learn: Quick Hacks for Success Looking to level up your leadership skills in just 20 minutes? Drop in for a bite to eat and a quick interactive…",
    "location": "UWM Student Union (UN), 2200 East Kenwood Blvd., Milwaukee, WI, 53211, United States",
    "organizer": "Student Affairs",
    "date": "4/14/2026",
    "lat": 43.0751922,
    "lng": -87.8813912
  },
  {
    "title": "Explore Milwaukee Bike Ride",
    "description": "We’ll kick off this trip by learning the rules of the road and how to bike safely on Milwaukee city streets. Then, put your skills to the test with a…",
    "location": "Klotsche Center (KC), 3409 North Downer Ave., Milwaukee, WI, 53211, United States",
    "organizer": "Student Affairs",
    "date": "4/14/2026",
    "lat": 43.0795057,
    "lng": -87.8796776
  },
  {
    "title": "KANENON:WE: Original Seeds - Film Screening",
    "description": "Join us for an evening of food, community, and storytelling as we gather for a screening of Kanenon:we – Original Seeds, presented in partnership with Ukwakhwa. We’ll begin at the…",
    "location": "Electa Quinney Insitute, 2512 E Hartford Ave, Merrill Hall, Milwaukee, WI, 53211, United States",
    "organizer": "Electa Quinney Institute",
    "date": "4/14/2026",
    "lat": 43.07836959999999,
    "lng": -87.8785429
  },
  {
    "title": "Virtual Truman Scholarship Information Session",
    "description": "Join us on Microsoft Teams to learn about a national $30,000 scholarship opportunity for graduate school. This session is for undergraduate students in their first or second year who are…",
    "location": "Virtual, Milwaukee, WI, United States",
    "organizer": "UWM Campus Events Calendar",
    "date": "4/14/2026",
    "lat": 43.0410344,
    "lng": -87.9096783
  },
  {
    "title": "Milwaukee Riverkeeper Supply Prep Event",
    "description": "Every spring the Milwaukee Riverkeepers holds a city wide river clean up that draws in thousands of volunteers. They need your help organizing the supplies necessary for all the volunteers…",
    "location": "UWM School of Freshwater Sciences, 600 E Greenfield Ave, Milwaukee, WI, 53204",
    "organizer": "Center for Student Experience & Talent",
    "date": "4/15/2026",
    "lat": 43.0172124,
    "lng": -87.9037553
  },
  {
    "title": "Hula & Polynesian Culture Workshop Series",
    "description": "Hula & Polynesian Culture Workshop Series Join the Electa Quinney Institute for American Indian Education for a weekly cultural immersion experience led by Artist-In-Residence Malia Chow from Nā Hale Studios…",
    "location": "Merrill Hall 142, 2512 E. Kenwood, Milwaukee, Wiscosin, 53211",
    "organizer": "Electa Quinney Institute",
    "date": "4/15/2026",
    "lat": 43.07469529999999,
    "lng": -87.8788631
  },
  {
    "title": "Digital Humanities Services: Introduction to Unix Shell",
    "description": "Learn how to use one of the most basic tools for programming and other tasks, the Unix Shell. Use of the shell is fundamental to a wide range of advanced…",
    "location": "Archives, Golda Meir Library",
    "organizer": "Libraries",
    "date": "4/15/2026",
    "lat": 43.0769274,
    "lng": -87.8804474
  },
  {
    "title": "Pharmacy Careers and MCW Pharmacy School Information Session",
    "description": "Learn from and network with MCW pharmacy faculty and staff. Hear about the breadth of pharmacy careers, the changing landscape of the field, and MCW academic requirements. The UWM/MCW Dual-Degree…",
    "location": "Chemistry Building Room 237, 3210 N Cramer St, Milwaukee, WI, 53211",
    "organizer": "Center for Student Experience & Talent",
    "date": "4/15/2026",
    "lat": 43.0760137,
    "lng": -87.88492939999999
  },
  {
    "title": "Wednesday Well-Being: Spring 2026",
    "description": "Join us every Wednesday in the NWQD 3rd-floor student lounge for rotating activities everyone can enjoy.Whether you are coming to see an advisor, looking for ways to de-stress, or make…",
    "location": "NWQD 3rd Floor, 2025 E Newport Ave, Milwaukee, WI, 53211, United States",
    "organizer": "School of Information Studies",
    "date": "4/15/2026",
    "lat": 43.078332,
    "lng": -87.88436279999999
  },
  {
    "title": "Pop-in with EY",
    "description": "Join us for a casual networking event with Ernst & Young (EY) and enjoy free popcorn & soda on us! This is a fantastic opportunity for students to chat with…",
    "location": "Lubar Career Center, 3202 N Maryland Ave, Milwaukee, WI, 53211, United States",
    "organizer": "Center for Student Experience & Talent",
    "date": "4/15/2026",
    "lat": 43.07571919999999,
    "lng": -87.8824594
  },
  {
    "title": "Latin American, Caribbean, and U.S. Latinx Studies Speaker Series",
    "description": "Ancient Urbanism in Peru’s Casma Valley Join University of Wisconsin-Milwaukee Professor of Art History and Archaeology Dr. David Pacifico for his talk “Ancient Urbanism in Peru’s Casma Valley,” part of…",
    "location": "American Geographical Society Library, Golda Meir Library, 2311 E. Hartford Ave., Milwaukee, WI, United States",
    "organizer": "Libraries",
    "date": "4/15/2026",
    "lat": 43.0769274,
    "lng": -87.8804474
  },
  {
    "title": "Artificial Intelligence & Analytics for Business Certificate Information Session",
    "description": "Stand out in the future of business with Lubar’s new certificate in AI. You’ll learn how to analyze data, build practical AI solutions, and apply cutting‑edge tools that give you…",
    "location": "Lubar Hall, N126",
    "organizer": "Lubar College of Business",
    "date": "4/15/2026",
    "lat": 43.076036,
    "lng": -87.8819958
  },
  {
    "title": "Outdoor Paintball",
    "description": "We’re headed to Siege Paintball 40 minutes from campus to battle it out on their outdoor paintball fields. You can expect wooded fields, obstacles and thrilling game play with other…",
    "location": "Klotsche Center (KC), 3409 North Downer Ave., Milwaukee, WI, 53211, United States",
    "organizer": "Student Affairs",
    "date": "4/15/2026",
    "lat": 43.0795057,
    "lng": -87.8796776
  },
  {
    "title": "The Social Network",
    "description": "Special Event In 2003, Harvard undergrad and computer genius Mark Zuckerberg begins work on a new concept that eventually turns into the global social network known as Facebook. Six years…",
    "location": "UWM Student Union (UN), 2200 East Kenwood Blvd., Milwaukee, WI, 53211, United States",
    "organizer": "Student Affairs",
    "date": "4/15/2026",
    "lat": 43.0751922,
    "lng": -87.8813912
  },
  {
    "title": "Artists Now! Guest Lecture Series: Kill Joy",
    "description": "Date & TimeWednesday, April 15, 2026 (7:30–9 p.m.) LocationVirtual Born in West Texas, Kill Joy explores mythology from around the world and studies ancient symbols. Her research is infused in…",
    "location": "https://uwm.edu/arts/event/artists-now-guest-lecture-series-kill-joy/",
    "organizer": "Peck School of the Arts",
    "date": "4/15/2026",
    "lat": 43.0751758,
    "lng": -87.8815483
  },
  {
    "title": "Milwaukee Athletics Volleyball at Marquette",
    "description": "Milwaukee Athletics Volleyball at Marquette",
    "location": "Milwaukee, Wis., Al McGuire Center",
    "organizer": "Panther Athletics",
    "date": "4/15/2026",
    "lat": 43.0396337,
    "lng": -87.92694709999999
  },
  {
    "title": "Zilber College of Public Health Seminar - The Human Elements of Health Data Visualization in an AI Obsessed World",
    "description": "Presented by: Amanda Makulec, MPH Founder | Viz Responsibly Advisor | Data Visualization Society As genAI tools reshape how many data visualizations are created, health data requires more than just…",
    "location": "KIRC Room 1150, 3135 N. Maryland Ave., Milwaukee, WI, 53211, United States",
    "organizer": "Zilber College of Public Health",
    "date": "4/16/2026",
    "lat": 43.0754876,
    "lng": -87.8839258
  },
  {
    "title": "Milwaukee Athletics Men's Track & Field at Gibson Invite - Hosted by Indiana State",
    "description": "Milwaukee Athletics Men's Track & Field at Gibson Invite - Hosted by Indiana State",
    "location": "Terre Haute, Ind., Gibson Track & Field Complex",
    "organizer": "Panther Athletics",
    "date": "4/16/2026",
    "lat": 39.4708451,
    "lng": -87.41777619999999
  },
  {
    "title": "Milwaukee Athletics Women's Track & Field at Gibson Invite - Hosted by Indiana State",
    "description": "Milwaukee Athletics Women's Track & Field at Gibson Invite - Hosted by Indiana State",
    "location": "Terre Haute, Ind., Gibson Track & Field Complex",
    "organizer": "Panther Athletics",
    "date": "4/16/2026",
    "lat": 39.4708451,
    "lng": -87.41777619999999
  },
  {
    "title": "Financial Aid Help Session",
    "description": "Got financial aid questions? FAFSA got you in a twist? Trouble breaking down your tuition? Drop into the FG+RC to meet with a financial aid expert every other Thursday. No…",
    "location": "First-Generation+ Resource Center (EG39), 2200 East Kenwood Blvd, Milwaukee, WI, 53211, United States",
    "organizer": "Student Affairs",
    "date": "4/16/2026",
    "lat": 43.0751922,
    "lng": -87.8813912
  },
  {
    "title": "Learn How to Use Narcan®",
    "description": "Come and learn how to recognize and respond in a potential overdose situation! Join the Student Health and Wellness Center and students from the Medical College of Wisconsin Pharmacy School…",
    "location": "UWM Student Union (UN), 2200 East Kenwood Blvd., Milwaukee, WI, 53211, United States",
    "organizer": "Student Affairs",
    "date": "4/16/2026",
    "lat": 43.0751922,
    "lng": -87.8813912
  },
  {
    "title": "De-stress, Not Distress",
    "description": "Let’s take a break! As busy college students, experiencing stress is common. The impact of ongoing or unresolved stress can lead to feelings of anxiety, depression, irritability, poor concentration, physical…",
    "location": "UWM Student Union (UN), 2200 East Kenwood Blvd., Milwaukee, WI, 53211, United States",
    "organizer": "Student Affairs",
    "date": "4/16/2026",
    "lat": 43.0751922,
    "lng": -87.8813912
  },
  {
    "title": "On-campus Employment Resume and Application Workshop",
    "description": "For students who have applied to on-campus employment several times and want to learn how to improve their application documents. Learn what on-campus employers look for in a resume Learn…",
    "location": "Student Union E153, 2200 E Kenwood Blvd., Milwaukee, WI, 53211",
    "organizer": "Center for Student Experience & Talent",
    "date": "4/16/2026",
    "lat": 43.0751922,
    "lng": -87.8813912
  },
  {
    "title": "Careers in Neuropsychology",
    "description": "Attend a panel of professionals from the Medical College of Wisconsin, Froedtert Hospital, and Milwaukee Veterans Affairs Medical Center to learn about careers in neuropsychology with a bachelors degree and…",
    "location": "Lubar Hall S195, Milwaukee, WI, 53211",
    "organizer": "Center for Student Experience & Talent",
    "date": "4/16/2026",
    "lat": 43.076036,
    "lng": -87.8819958
  },
  {
    "title": "Small Talk, Big Moves: Networking with Confidence",
    "description": "Networking doesn’t have to be awkward. This interactive event helps you build confidence through guided practice and real conversations. Participants will rotate through skill-based stations focused on elevator pitches, small…",
    "location": "Lubar Entrepreneurship Center, 2100 E Kenwood Blvd, Milwaukee, WI, 53211",
    "organizer": "Center for Student Experience & Talent",
    "date": "4/16/2026",
    "lat": 43.07490720000001,
    "lng": -87.8837602
  },
  {
    "title": "Missing & Murdered Indigenous People’s Day of Awareness Screening: She Cried That Day",
    "description": "5:15pm-9pm | Union Cinema  Join us for a powerful screening of She Cried That Day, a film that sheds light on the heartbreaking realities faced by Missing and Murdered Indigenous…",
    "location": "UWM Student Union (UN), 2200 East Kenwood Blvd., Milwaukee, WI, 53211, United States",
    "organizer": "Student Affairs",
    "date": "4/16/2026",
    "lat": 43.0751922,
    "lng": -87.8813912
  },
  {
    "title": "Milwaukee Athletics Women's Tennis at Northern Kentucky",
    "description": "Milwaukee Athletics Women's Tennis at Northern Kentucky",
    "location": "Crestview Hills, Ky., Five Seasons Sports Club",
    "organizer": "Panther Athletics",
    "date": "4/16/2026",
    "lat": 39.0232907,
    "lng": -84.56631929999999
  },
  {
    "title": "Lawton Deadline - Peer Mentor Meeting 2",
    "description": "Lawton Scholars must meet with their Peer Mentor by Friday, April 17th. Optional for Seniors. Students can schedule a meeting on Navigate360. Contact uwmlawton@uwm.edu with any questions.",
    "location": "First-Generation+ Resource Center (EG39), 2200 East Kenwood Blvd, Milwaukee, WI, 53211, United States",
    "organizer": "Student Affairs",
    "date": "4/17/2026",
    "lat": 43.0751922,
    "lng": -87.8813912
  },
  {
    "title": "Lawton Deadline – Academic Advisor or Success Coach Meeting",
    "description": "ALL Lawton Scholars must meet with their Academic Advisor or Success Coach by Friday, April 17th. Contact uwmlawton@uwm.edu with questions.",
    "location": "First-Generation+ Resource Center (EG39), 2200 East Kenwood Blvd, Milwaukee, WI, 53211, United States",
    "organizer": "Student Affairs",
    "date": "4/17/2026",
    "lat": 43.0751922,
    "lng": -87.8813912
  },
  {
    "title": "MKE Percussion Festival",
    "description": "DatesFriday, April 17, 2026 (7:30–9 p.m.)Saturday, April 18, 2026 (11 a.m.–4 p.m.) AgesAll Ages LocationZelazo Center for the Performing Arts Contactpercussion@uwm.edu The MKE Percussion Festival brings together percussionists of all ages for a weekend of…",
    "location": "Zelazo Center for the Performing Arts, Bader Hall, 2419 E. Kenwood Blvd., Milwaukee, WI, 53211",
    "organizer": "Peck School of the Arts",
    "date": "4/17/2026",
    "lat": 43.0742889,
    "lng": -87.8797889
  },
  {
    "title": "Spring Opera",
    "description": "DatesFriday–Saturday, April 17–18, 2026 (7–9:30 p.m.) LocationMusic Building, Recital Hall and Virtual This spring, UWM Opera Theatre invites you to experience a fully staged production filled with powerful voices, and dramatic storytelling. Featuring student…",
    "location": "Music Building, Recital Hall, 2400 E. Kenwood Blvd., Milwaukee, WI, 53211",
    "organizer": "Peck School of the Arts",
    "date": "4/17/2026",
    "lat": 43.0762821,
    "lng": -87.8798006
  },
  {
    "title": "Milwaukee Athletics Men's Track & Field at Gibson Invite - Hosted by Indiana State",
    "description": "Milwaukee Athletics Men's Track & Field at Gibson Invite - Hosted by Indiana State",
    "location": "Terre Haute, Ind., Gibson Track & Field Complex",
    "organizer": "Panther Athletics",
    "date": "4/17/2026",
    "lat": 39.4708451,
    "lng": -87.41777619999999
  },
  {
    "title": "Milwaukee Athletics Women's Track & Field at Gibson Invite - Hosted by Indiana State",
    "description": "Milwaukee Athletics Women's Track & Field at Gibson Invite - Hosted by Indiana State",
    "location": "Terre Haute, Ind., Gibson Track & Field Complex",
    "organizer": "Panther Athletics",
    "date": "4/17/2026",
    "lat": 39.4708451,
    "lng": -87.41777619999999
  },
  {
    "title": "Exploring Majors Fair",
    "description": "The College of Letters & Science is hosting an exploring majors fair this spring! Come learn more about the programs in the College of Letters & Science. We offer a…",
    "location": "UWM Zelazo Center, Room 250, 2419 East Kenwood Blvd., Milwaukee, WI, 53211, United States",
    "organizer": "Letters & Science",
    "date": "4/17/2026",
    "lat": 43.0742889,
    "lng": -87.8797889
  },
  {
    "title": "Men Offering & Seeking Support: It’s All About Consent",
    "description": "10-11am | Northwest Quad, Building D, 8th Floor  Consent can seem like a big conversation, but it’s important. Come discuss expectations and barriers of intimacy and consent!  Sponsored by Sociocultural Programming & Student…",
    "location": "Northwest Quadrant Building (NWQ), 2025 E Newport Ave., Milwaukee, WI, 53211, United States",
    "organizer": "Student Affairs",
    "date": "4/17/2026",
    "lat": 43.0789808,
    "lng": -87.8852727
  },
  {
    "title": "Engineering and Computer Science Information Session & Unplugged Tour with the Dean",
    "description": "Curious about what it’s really like to study engineering or computer science at UWM? Join us for a College of Engineering & Applied Science information session, where you’ll connect one-on-one…",
    "location": "EMS E270, 3200 North Cramer Street, Milwaukee, WI, 53211-3029, United States",
    "organizer": "Engineering",
    "date": "4/17/2026",
    "lat": 43.0756827,
    "lng": -87.8864139
  },
  {
    "title": "Lead The Change",
    "description": "The world isn’t just around you, it’s also in your hands and you have the power to make change! Join us for Lead the Change as we engage in community-style discussions and…",
    "location": "UWM Student Union (UN), 2200 East Kenwood Blvd., Milwaukee, WI, 53211, United States",
    "organizer": "Student Affairs",
    "date": "4/17/2026",
    "lat": 43.0751922,
    "lng": -87.8813912
  },
  {
    "title": "Milwaukee Athletics Baseball vs Northern Kentucky",
    "description": "Milwaukee Athletics Baseball vs Northern Kentucky TV: ESPN+ Streaming Audio: http://mkepanthers.com/showcase?Live=143 Tickets: https://am.ticketmaster.com/uwm/buy/Baseball?utm_source=ig&utm_medium=social&utm_content=link_in_bio&fbclid=PAZXh0bgNhZW0CMTEAc3J0YwZhcHBfaWQMMjU2MjgxMDQwNTU4AAGnDWkYqtaGgGRy6Lw_HGjYmlsul1vXgn-PhtTMIPgyaq0c2d7H2nklBMaFZwQ_aem_DspH1UH5D4lZROGv9AFcPQ",
    "location": "Franklin, Wis., Franklin Field",
    "organizer": "Panther Athletics",
    "date": "4/17/2026",
    "lat": 42.9176698,
    "lng": -88.0155147
  },
  {
    "title": "Bogancloch",
    "description": "New Releases A man’s solitary life in a Scottish highland forest is portrayed through the changing seasons, with occasional encounters disrupting his otherwise isolated existence.",
    "location": "UWM Student Union (UN), 2200 East Kenwood Blvd., Milwaukee, WI, 53211, United States",
    "organizer": "Student Affairs",
    "date": "4/17/2026",
    "lat": 43.0751922,
    "lng": -87.8813912
  },
  {
    "title": "Milwaukee Athletics Men's Track & Field at Phil Esten Challenge - Hosted by La Crosse",
    "description": "Milwaukee Athletics Men's Track & Field at Phil Esten Challenge - Hosted by La Crosse",
    "location": "La Crosse, Wis., Veterans Memorial Field Sports Complex",
    "organizer": "Panther Athletics",
    "date": "4/17/2026",
    "lat": 43.816843,
    "lng": -91.22639009999999
  },
  {
    "title": "Milwaukee Athletics Women's Track & Field at Phil Esten Challenge - Hosted by La Crosse",
    "description": "Milwaukee Athletics Women's Track & Field at Phil Esten Challenge - Hosted by La Crosse",
    "location": "La Crosse, Wis., Veterans Memorial Field Sports Complex",
    "organizer": "Panther Athletics",
    "date": "4/17/2026",
    "lat": 43.816843,
    "lng": -91.22639009999999
  },
  {
    "title": "MKE Mass Steel Band",
    "description": "Date & TimeFriday, April 17, 2026 (7:30–9:30 p.m.) LocationZelazo Center for the Performing Arts, Bader Hall and Virtual Steel pan ensembles and individual performers from around Wisconsin and Illinois will come…",
    "location": "Zelazo Center for the Performing Arts, Bader Hall, 2419 E. Kenwood Blvd., Milwaukee, WI, 53211",
    "organizer": "Peck School of the Arts",
    "date": "4/17/2026",
    "lat": 43.0742889,
    "lng": -87.8797889
  },
  {
    "title": "Overnight Caving Adventure",
    "description": "Trip Dates: Depart on Saturday April 18 at 8am and return to campus Sunday April 19th at 5pm. Have you ever wanted to spend the night in a cave?! Did…",
    "location": "Klotsche Center (KC), 3409 North Downer Ave., Milwaukee, WI, 53211, United States",
    "organizer": "Student Affairs",
    "date": "4/18/2026",
    "lat": 43.0795057,
    "lng": -87.8796776
  },
  {
    "title": "Make a Difference Day",
    "description": "This is a city-wide volunteer event where volunteers help older adults in the community prepare their yards and neighborhood for spring! You can sign up as an individual or with…",
    "location": "UWM Student Union, 2200 E Kenwood Blvd, Milwaukee, WI, 53211",
    "organizer": "Center for Student Experience & Talent",
    "date": "4/18/2026",
    "lat": 43.0751922,
    "lng": -87.8813912
  },
  {
    "title": "Milwaukee Athletics Men's Track & Field at Gibson Invite - Hosted by Indiana State",
    "description": "Milwaukee Athletics Men's Track & Field at Gibson Invite - Hosted by Indiana State",
    "location": "Terre Haute, Ind., Gibson Track & Field Complex",
    "organizer": "Panther Athletics",
    "date": "4/18/2026",
    "lat": 39.4708451,
    "lng": -87.41777619999999
  },
  {
    "title": "Milwaukee Athletics Women's Track & Field at Gibson Invite - Hosted by Indiana State",
    "description": "Milwaukee Athletics Women's Track & Field at Gibson Invite - Hosted by Indiana State",
    "location": "Terre Haute, Ind., Gibson Track & Field Complex",
    "organizer": "Panther Athletics",
    "date": "4/18/2026",
    "lat": 39.4708451,
    "lng": -87.41777619999999
  },
  {
    "title": "Milwaukee Athletics Women's Tennis at IU Indy",
    "description": "Milwaukee Athletics Women's Tennis at IU Indy",
    "location": "Indianapolis, Ind., West Indy Racquet Club",
    "organizer": "Panther Athletics",
    "date": "4/18/2026",
    "lat": 39.835105,
    "lng": -86.229793
  },
  {
    "title": "Milwaukee Athletics Men's Track & Field at Phil Esten Challenge - Hosted by La Crosse",
    "description": "Milwaukee Athletics Men's Track & Field at Phil Esten Challenge - Hosted by La Crosse",
    "location": "La Crosse, Wis., Veterans Memorial Field Sports Complex",
    "organizer": "Panther Athletics",
    "date": "4/18/2026",
    "lat": 43.816843,
    "lng": -91.22639009999999
  },
  {
    "title": "Milwaukee Athletics Women's Track & Field at Phil Esten Challenge - Hosted by La Crosse",
    "description": "Milwaukee Athletics Women's Track & Field at Phil Esten Challenge - Hosted by La Crosse",
    "location": "La Crosse, Wis., Veterans Memorial Field Sports Complex",
    "organizer": "Panther Athletics",
    "date": "4/18/2026",
    "lat": 43.816843,
    "lng": -91.22639009999999
  },
  {
    "title": "Milwaukee Athletics Baseball vs Northern Kentucky - Bark in the Park | Dog Bowl Giveaway",
    "description": "Milwaukee Athletics Baseball vs Northern Kentucky - Bark in the Park | Dog Bowl Giveaway TV: ESPN+ Streaming Audio: http://mkepanthers.com/showcase?Live=144 Tickets: https://am.ticketmaster.com/uwm/buy/Baseball?utm_source=ig&utm_medium=social&utm_content=link_in_bio&fbclid=PAZXh0bgNhZW0CMTEAc3J0YwZhcHBfaWQMMjU2MjgxMDQwNTU4AAGnDWkYqtaGgGRy6Lw_HGjYmlsul1vXgn-PhtTMIPgyaq0c2d7H2nklBMaFZwQ_aem_DspH1UH5D4lZROGv9AFcPQ",
    "location": "Franklin, Wis., Franklin Field",
    "organizer": "Panther Athletics",
    "date": "4/18/2026",
    "lat": 42.9176698,
    "lng": -88.0155147
  },
  {
    "title": "Bogancloch",
    "description": "New Releases A man’s solitary life in a Scottish highland forest is portrayed through the changing seasons, with occasional encounters disrupting his otherwise isolated existence.",
    "location": "UWM Student Union (UN), 2200 East Kenwood Blvd., Milwaukee, WI, 53211, United States",
    "organizer": "Student Affairs",
    "date": "4/18/2026",
    "lat": 43.0751922,
    "lng": -87.8813912
  },
  {
    "title": "Milwaukee Athletics Baseball vs Northern Kentucky - Scouts Day | Little League Day | Reading Program Day",
    "description": "Milwaukee Athletics Baseball vs Northern Kentucky - Scouts Day | Little League Day | Reading Program Day TV: ESPN+ Streaming Audio: http://mkepanthers.com/showcase?Live=145 Tickets: https://am.ticketmaster.com/uwm/buy/Baseball?utm_source=ig&utm_medium=social&utm_content=link_in_bio&fbclid=PAZXh0bgNhZW0CMTEAc3J0YwZhcHBfaWQMMjU2MjgxMDQwNTU4AAGnDWkYqtaGgGRy6Lw_HGjYmlsul1vXgn-PhtTMIPgyaq0c2d7H2nklBMaFZwQ_aem_DspH1UH5D4lZROGv9AFcPQ",
    "location": "Franklin, Wis., Franklin Field",
    "organizer": "Panther Athletics",
    "date": "4/19/2026",
    "lat": 42.9176698,
    "lng": -88.0155147
  },
  {
    "title": "Pet Rock Hunt",
    "description": "Keep your eyes open as you make your way across campus this week- you may find your new best friend! Pet rocks will be placed all around UWM. If you…",
    "location": "Northwest Quadrant Building (NWQ), 2025 E Newport Ave., Milwaukee, WI, 53211, United States",
    "organizer": "Student Affairs",
    "date": "4/20/2026",
    "lat": 43.0789808,
    "lng": -87.8852727
  },
  {
    "title": "Earth Week Free Store Pop-Up",
    "description": "In celebration of Earth Week, the OCRC is excited to partner with Conservation Club for a special Earth Week Free Store Pop-Up during this semester’s Clothing Swap! Give pre-loved items…",
    "location": "UWM Student Union (UN), 2200 East Kenwood Blvd., Milwaukee, WI, 53211, United States",
    "organizer": "Student Affairs",
    "date": "4/20/2026",
    "lat": 43.0751922,
    "lng": -87.8813912
  },
  {
    "title": "Earth Week Free Store Pop-Up",
    "description": "In celebration of Earth Week, the OCRC is excited to host a special Earth Week Free Store Pop-Up! Give pre-loved items a second life and help reduce waste by stopping…",
    "location": "UWM Student Union (UN), 2200 East Kenwood Blvd., Milwaukee, WI, 53211, United States",
    "organizer": "Student Affairs",
    "date": "4/20/2026",
    "lat": 43.0751922,
    "lng": -87.8813912
  },
  {
    "title": "Ask a Nurse",
    "description": "Stop by the new Ask a Nurse table to speak with a nurse from the Student Health and Wellness Center. Ask a medical question, learn about SHAW services, sign up for the Patient Portal, and so much more.",
    "location": "Sandburg Residence Halls (SAN), 3400 North Maryland Ave,, Milwaukee, WI, 53212, United States",
    "organizer": "Student Affairs",
    "date": "4/21/2026",
    "lat": 43.0791781,
    "lng": -87.88182760000001
  },
  {
    "title": "The Tea on Consent",
    "description": "Let’s dive deep into the topic of consent and healthy ways it can be established. This workshop will cover topics such as assertive communication, the impact of culture on consent,…",
    "location": "UWM Student Union (UN), 2200 East Kenwood Blvd., Milwaukee, WI, 53211, United States",
    "organizer": "Student Affairs",
    "date": "4/21/2026",
    "lat": 43.0751922,
    "lng": -87.8813912
  },
  {
    "title": "Let's Talk",
    "description": "Whether it’s stress, sadness, relationship problems, academic concerns, or coping with the impact of world events, sharing your concerns with another person can make a positive difference. “Let’s Talk” is…",
    "location": "First-Generation+ Resource Center (EG39), 2200 East Kenwood Blvd, Milwaukee, WI, 53211, United States",
    "organizer": "Student Affairs",
    "date": "4/21/2026",
    "lat": 43.0751922,
    "lng": -87.8813912
  },
  {
    "title": "Club Soda",
    "description": "Club Soda (formerly known as ‘Sober Socials’) is a weekly get-together with students who choose not to use for whatever reason. It is a great place to meet like-minded people…",
    "location": "UWM Student Union (UN), 2200 East Kenwood Blvd., Milwaukee, WI, 53211, United States",
    "organizer": "Student Affairs",
    "date": "4/21/2026",
    "lat": 43.0751922,
    "lng": -87.8813912
  },
  {
    "title": "Lunch & Learn",
    "description": "Leadership Lunch & Learn: Quick Hacks for Success Looking to level up your leadership skills in just 20 minutes? Drop in for a bite to eat and a quick interactive…",
    "location": "UWM Student Union (UN), 2200 East Kenwood Blvd., Milwaukee, WI, 53211, United States",
    "organizer": "Student Affairs",
    "date": "4/21/2026",
    "lat": 43.0751922,
    "lng": -87.8813912
  },
  {
    "title": "DIY Terrariums",
    "description": "Celebrate Earth Week with Campus Activities Board and the Craft Centre! Stop by the Concourse to create your very own terrarium using recycled jars and containers. Fill it with succulents…",
    "location": "UWM Student Union (UN), 2200 East Kenwood Blvd., Milwaukee, WI, 53211, United States",
    "organizer": "Student Affairs",
    "date": "4/21/2026",
    "lat": 43.0751922,
    "lng": -87.8813912
  },
  {
    "title": "Civilian Response to Active Shooter Events (CRASE) Training",
    "description": "The goal of this training is to provide a basic understanding of how to survive an active shooter incident. The training is free for all UWM faculty, staff and students.…",
    "location": "Curtin Hall, 3243 North Downer Ave, Milwaukee, WI, 53211, United States",
    "organizer": "UWM Campus Events Calendar",
    "date": "4/21/2026",
    "lat": 43.07647619999999,
    "lng": -87.8787353
  },
  {
    "title": "Milwaukee Athletics Baseball vs St. Thomas",
    "description": "Milwaukee Athletics Baseball vs St. Thomas Streaming Audio: http://mkepanthers.com/showcase?Live=146 Tickets: https://am.ticketmaster.com/uwm/buy/Baseball?utm_source=ig&utm_medium=social&utm_content=link_in_bio&fbclid=PAZXh0bgNhZW0CMTEAc3J0YwZhcHBfaWQMMjU2MjgxMDQwNTU4AAGnDWkYqtaGgGRy6Lw_HGjYmlsul1vXgn-PhtTMIPgyaq0c2d7H2nklBMaFZwQ_aem_DspH1UH5D4lZROGv9AFcPQ",
    "location": "Franklin, Wis., Franklin Field",
    "organizer": "Panther Athletics",
    "date": "4/21/2026",
    "lat": 42.9176698,
    "lng": -88.0155147
  },
  {
    "title": "On-campus Employment Resume and Application Workshop",
    "description": "For students who have applied to on-campus employment several times and want to learn how to improve their application documents. Learn what on-campus employers look for in a resume Learn…",
    "location": "Student Union E153, 2200 E Kenwood Blvd., Milwaukee, WI, 53211",
    "organizer": "Center for Student Experience & Talent",
    "date": "4/22/2026",
    "lat": 43.0751922,
    "lng": -87.8813912
  },